[{"name": "AIC KIKULANI PRI &JS", "county": "Embu", "sub_county": "Embu", "lat": -84.817135, "lon": 26.435529}, {"name": "EBUKOOLO PRIMARY", "county": "Vihiga", "sub_county": "Emuhaya", "lat": 0.06178, "lon": 34.558628}, {"name": "KILIMANGODO PRIMARY SCHOOL", "county": "Kwale", "sub_county": "Lunga Lunga", "lat": -4.348788, "lon": 39.076749}, {"name": "Nyabisia DEB Pri.", "county": "Kisii", "sub_county": "Nyamanche", "lat": -0.858676, "lon": 34.758881}, {"name": "KAMURAR PRIMARY SCHOOL", "county": "Narok", "sub_county": "Narok North", "lat": -1.292066, "lon": 36.821946}, {"name": "KIRIAHU JUNIOR SCHOOL", "county": "Nyandarua", "sub_county": "South Kinangop", "lat": -0.776141, "lon": 36.57701}, {"name": "Masendebale primary", "county": "Busia", "sub_county": "Butula", "lat": 0.324631, "lon": 34.35619}, {"name": "MAKWARA PRIMARY SCHOOL", "county": "Busia", "sub_county": "Butula", "lat": 0.346836, "lon": 34.213724}, {"name": "ENKARE NAIROWUA PRIMARY", "county": "Narok", "sub_county": "Narok South", "lat": -1.3332, "lon": 35.7083}, {"name": "NYAOLA PRIMARY SCHOOL", "county": "Homa Bay", "sub_county": "Rachuonyo North", "lat": 34.56191, "lon": 0.43137}, {"name": "NYAKUNGURU DEB", "county": "Kisii", "sub_county": "SAMETA", "lat": 0.724553, "lon": 34.731835}, {"name": "ACK ST. PAULS KYAUME PRIMARY", "county": "Makueni", "sub_county": "Mbooni East", "lat": -1.727775, "lon": 37.664388}, {"name": "NDITHI PRIMARY SCHOOL", "county": "Kitui", "sub_county": "Mwingi Central", "lat": -0.788426, "lon": 38.026376}, {"name": "Tito ecd center and primary school", "county": "Wajir", "sub_county": "Eldas", "lat": 2.488517, "lon": 39.567408}, {"name": "JILANGO PRIMARY", "county": "Garissa", "sub_county": "Lagdera", "lat": 0.552623, "lon": 39.720318}, {"name": "Olekimaki primary school", "county": "Kajiado", "sub_county": "Oloililai", "lat": -2.421121, "lon": 36.904385}, {"name": "Kambui pry/Jss", "county": "Tharaka-Nithi", "sub_county": "Meru North", "lat": -0.416486, "lon": 37.779779}, {"name": "ARARET PRIMARY SCHOOL", "county": "Nakuru", "sub_county": "Kuresoi North", "lat": -0.383228, "lon": 35.500956}, {"name": "Kajire Primary School", "county": "Taita/Taveta", "sub_county": "Voi", "lat": 3.5168, "lon": 38.6106}, {"name": "Iltuleta", "county": "Kajiado", "sub_county": "Isinya", "lat": -2.23262, "lon": 37.18473}, {"name": "Ndonyo Wasin Primary School", "county": "Samburu", "sub_county": "Samburu East", "lat": 1.349722, "lon": 37.4369}, {"name": "Rumich bor primary school", "county": "Mandera", "sub_county": "Kotulo", "lat": 2.615046, "lon": 40.646747}, {"name": "NGONYEK PRIMARY", "county": "Trans Nzoia", "sub_county": "Trans Nzoia East", "lat": -1.274675, "lon": 36.824678}, {"name": "KWAKOKO PRI", "county": "Machakos", "sub_county": "ATHI RIVER", "lat": 10.1, "lon": 36.27}, {"name": "ST. PAUL'S KIBISI PRIMARY", "county": "Bungoma", "sub_county": "Bungoma East", "lat": -1.281229, "lon": 36.831232}, {"name": "MUUSINI PRIMARY SCHOOL", "county": "Machakos", "sub_county": "Yatta", "lat": -1.099216, "lon": 37.433918}, {"name": "Gikondi", "county": "Murang'a", "sub_county": "Kigumo", "lat": -0.818153, "lon": 37.039468}, {"name": "Kinondo Primary School", "county": "Kwale", "sub_county": "Msambweni", "lat": -4.373383, "lon": 39.532086}, {"name": "MAUA COMPREHENSIVE SCHOOL", "county": "Kakamega", "sub_county": "Likuyani", "lat": 0.7910263, "lon": 35.088876}, {"name": "KANYUNGU", "county": "Kitui", "sub_county": "Mutomo", "lat": 37.0, "lon": 0.02}, {"name": "Kiatine comprehensive school", "county": "Kitui", "sub_county": "Kitui West", "lat": -1.21599, "lon": 37.976103}, {"name": "NAPEIKAR PRIMARY", "county": "Turkana", "sub_county": "Loima", "lat": 3.018655, "lon": 35.494795}, {"name": "HULA HULA PRIMARY SCHOOL", "county": "Marsabit", "sub_county": "Marsabit", "lat": 2.334337, "lon": 37.990364}, {"name": "Raichiri", "county": "Nyandarua", "sub_county": "Nyandarua North", "lat": 0.098331, "lon": 36.4583017}, {"name": "KABIBONI PRIMARY", "county": "Kilifi", "sub_county": "Magarini", "lat": -2.984958, "lon": 40.026294}, {"name": "KORURUMA COMPREHENSIVE SCHOOL", "county": "Busia", "sub_county": "Teso Central", "lat": 0.673373, "lon": 34.288513}, {"name": "KALOCHAAN PRIMARY", "county": "Turkana", "sub_county": "Turkana South", "lat": 2.372125, "lon": 35.650723}, {"name": "Kaumo Primary School", "county": "Homa Bay", "sub_county": "Ndhiwa", "lat": 1e-06, "lon": 1e-06}, {"name": "Kapterit comprehensive school", "county": "Baringo", "sub_county": "Mogotio", "lat": 0.145286, "lon": 35.793844}, {"name": "AIC TAUNET PRY SCHOOL", "county": "Nandi", "sub_county": "Tinderet", "lat": 0.023492, "lon": 35.25557}, {"name": "DAKACHA PRIMARY SCHOOL", "county": "Kilifi", "sub_county": "Magarini", "lat": -3.01543, "lon": 39.7929}, {"name": "NAKOKO PRIMARY", "county": "Baringo", "sub_county": "Tiaty East", "lat": 1.303, "lon": 36.0}, {"name": "ST. PETERS ERUSUI BOYS", "county": "Vihiga", "sub_county": "Hamisi", "lat": 0.093541, "lon": 34.839478}, {"name": "St. Claire Anding'o Primary School", "county": "Homa Bay", "sub_county": "Rangwe", "lat": -0.6029, "lon": 34.584}, {"name": "KINYUANI PRIMARY SCHOOL", "county": "Makueni", "sub_county": "Mbooni West", "lat": -1.567932, "lon": 37.414562}, {"name": "Koiwalelach school 8", "county": "Kericho", "sub_county": "Belgut", "lat": -0.463132, "lon": 35.091445}, {"name": "SYANTHI HGM PRIMARY", "county": "Machakos", "sub_county": "Matungulu", "lat": -1.3039734, "lon": 37.299676}, {"name": "TANDAPOS PRIMARY SCHOOL", "county": "West Pokot", "sub_county": "Kacheliba", "lat": 0.64, "lon": 34.26}, {"name": "OLEMEISI COMPREHENSIVE SCHOOL", "county": "Narok", "sub_county": "Narok North", "lat": 0.543995, "lon": 35.4436}, {"name": "Ikuyuni", "county": "Kitui", "sub_county": "Nzambani", "lat": 1.4609268, "lon": 38.053143}, {"name": "GOGO PRIMARY SCHOOL", "county": "Homa Bay", "sub_county": "Rachuonyo North", "lat": -0.4218, "lon": 34.508604}, {"name": "Tereben Primary", "county": "Baringo", "sub_county": "Baringo Central", "lat": 0.52741, "lon": 35.7532}, {"name": "LOLOTWO PRIMARY SCHOOL", "county": "West Pokot", "sub_county": "West Pokot", "lat": 1.29, "lon": 34.94}, {"name": "CCM KAONGO PRY SCH", "county": "Meru", "sub_county": "Meru Central", "lat": -0.03448, "lon": 37.72315}, {"name": "KAISAKAT PRIMARY / JUNIOR SCHOOL", "county": "Baringo", "sub_county": "Tiaty West", "lat": 35.7887, "lon": 1.2136}, {"name": "KUOYO PRIMARY", "county": "Kisumu", "sub_county": "Kisumu West", "lat": -0.027824, "lon": 34.623734}, {"name": "Putero", "county": "Baringo", "sub_county": "Marigat", "lat": 0.769858, "lon": 36.407515}, {"name": "DAMBAS PRIMARY SCHOOL", "county": "Wajir", "sub_county": "Tarbaj", "lat": 2.4050135, "lon": 40.018439}, {"name": "ST. JOSEPH'S PRIMARY BOARDING SCHOOL", "county": "Narok", "sub_county": "Trans Mara West", "lat": -1.002381, "lon": 34.872392}, {"name": "MCK NKARINI PRIMARY AND JUNIOR SCHOOL", "county": "Tharaka-Nithi", "sub_county": "CHIAKAGIRA", "lat": -0.244407222, "lon": 37.87659556}, {"name": "MUDEY PR SCH", "county": "Garissa", "sub_county": "Balambala", "lat": -0.043875, "lon": 39.059598}, {"name": "Mwimbi boarding", "county": "Tharaka-Nithi", "sub_county": "Maara", "lat": -0.244673, "lon": 37.618981}, {"name": "WAMBULI", "county": "Makueni", "sub_county": "Mbooni West", "lat": 1.5802, "lon": 37.3757}, {"name": "Resim primary school", "county": "Samburu", "sub_county": "Samburu East", "lat": 0.983383, "lon": 37.328451}, {"name": "Nkopeliani primary school", "county": "Samburu", "sub_county": "Samburu Central", "lat": 1.02409, "lon": 36.592014}, {"name": "Rweya Primary School", "county": "Kisumu", "sub_county": "Kisumu East", "lat": -0.129079, "lon": 34.831198}, {"name": "NDWARA PRIMARY SCHOOL", "county": "Siaya", "sub_county": "Rarieda", "lat": -0.180043, "lon": 34.356692}, {"name": "ACK ST CHRYSOSTOM KIAMURINGA", "county": "Embu", "sub_county": "Mbeere South", "lat": -0.516396, "lon": 37.564688}, {"name": "KUNO PRIMARY AND JUNIOUR SCHOOL", "county": "Garissa", "sub_county": "Balambala", "lat": -1.292066, "lon": 36.821946}, {"name": "NCUNGURU PRIMARY SCHOOL", "county": "Meru", "sub_county": "Igembe Central", "lat": 0.232555, "lon": 37.941375}, {"name": "Kwambae Prmary", "county": "Makueni", "sub_county": "MAKINDU", "lat": -2.284738, "lon": 37.824983}, {"name": "MUNJE PRIMARY SCHOOL", "county": "Kwale", "sub_county": "Msambweni", "lat": -4.509856, "lon": 39.457487}, {"name": "ENABATAT OWUARU PRIMARY", "county": "Narok", "sub_county": "Narok North", "lat": -1.7999, "lon": 36.02285}, {"name": "KIUMU PRIMARY SCHOOL", "county": "Murang'a", "sub_county": "Kahuro", "lat": 0.7483539, "lon": 37.0036854}, {"name": "Kinani primary school", "county": "Kilifi", "sub_county": "Kaloleni", "lat": -3.77415, "lon": 39.605806}, {"name": "Mbondoni Primary", "county": "Machakos", "sub_county": "Kalama", "lat": 1.646096, "lon": 37.239692}, {"name": "MAGADI pry", "county": "Laikipia", "sub_county": "Kirima", "lat": 0.614082, "lon": 36.54687}, {"name": "KIPSIS S.A SCHOOL", "county": "Bungoma", "sub_county": "CHEPTAIS", "lat": 0.824134, "lon": 34.469783}, {"name": "MAFISINI PRIMARY SCHOOL", "county": "Kilifi", "sub_county": "Chonyi", "lat": 39.53, "lon": 3.29}, {"name": "KYAKAVI PRIMARY", "county": "Kitui", "sub_county": "Ikutha", "lat": -2.008852, "lon": 38.22043}, {"name": "GUTOLE PRIMARY SCHOOL & JUNIOR SCHOOL", "county": "Mandera", "sub_county": "Mandera West", "lat": 3.40281, "lon": 40.23983}, {"name": "LEETA", "county": "Meru", "sub_county": "Matuati", "lat": 0.411333, "lon": 37.986985}, {"name": "LOKUTO PRIMARY", "county": "Samburu", "sub_county": "Samburu Central", "lat": 1.05096065606495, "lon": 36.8301161468706}, {"name": "Lokwatubwa", "county": "Turkana", "sub_county": "Lokiriama", "lat": 2.89275, "lon": 34.99498}, {"name": "MAKOBE PRY", "county": "Kwale", "sub_county": "Shimba Hills", "lat": 39.0, "lon": -4.37}, {"name": "BULA ADEY   PRIMARY SCHOOL", "county": "Garissa", "sub_county": "Garissa", "lat": 0.603421, "lon": 39.76915}, {"name": "SOITAMURT PRIMARY AND JUNIOR", "county": "Kajiado", "sub_county": "Kajiado West", "lat": -1.228255, "lon": 36.38252}, {"name": "Kavingoni school", "county": "Makueni", "sub_county": "KATHONZWENI", "lat": -1.958043, "lon": 37.6}, {"name": "Kosirai", "county": "Uasin Gishu", "sub_county": "Kapseret", "lat": 0.306291, "lon": 35.233219}, {"name": "Tulimani  primary enrollment", "county": "Makueni", "sub_county": "Mbooni West", "lat": -1.537258, "lon": 37.375605}, {"name": "MUTYANGOME PRIMARY SCHOOL", "county": "Kitui", "sub_county": "Mwingi East", "lat": 0.95444, "lon": 38.33248}, {"name": "TIRKEN SCHOOL", "county": "West Pokot", "sub_county": "Kipkomo", "lat": 1.461024, "lon": 35.229786}, {"name": "Chebugar Primary", "county": "Baringo", "sub_county": "Baringo North", "lat": 0.758031, "lon": 35.6615}, {"name": "muthangari primary school", "county": "Murang'a", "sub_county": "Mathioya", "lat": 36.866, "lon": 0.626}, {"name": "KARANGI COMPREHENSIVE SCHOOL", "county": "Laikipia", "sub_county": "Nyahururu", "lat": 0.076277, "lon": 36.279033}, {"name": "SIANDA PRIMARY SCHOOL", "county": "Kisumu", "sub_county": "Kisumu West", "lat": -0.0457048367665789, "lon": -34.6543335914612}, {"name": "KAMASIA", "county": "Elgeyo/Marakwet", "sub_county": "Marakwet East", "lat": -1.2841, "lon": 36.8155}, {"name": "KIGUMA PRIMARY SCHOOL", "county": "Meru", "sub_county": "Tigania Central", "lat": 0.0916, "lon": 37.83}, {"name": "BOITO PRIMARY SCHOOL", "county": "Bomet", "sub_county": "Konoin", "lat": -0.597209, "lon": 35.235623}, {"name": "RUGUNGA SPECIAL SCHOOL FOR THE MENTALLY CHALLENGED", "county": "Busia", "sub_county": "Teso South", "lat": 0.079393, "lon": 34.000938}, {"name": "LENSAYU PRIMARY  AND JUNIOR SCHOOL", "county": "Wajir", "sub_county": "KORONDILLE", "lat": 2.877508, "lon": 39.27373}, {"name": "Kaptorokwo primary", "county": "Bomet", "sub_county": "Chepalungu", "lat": -0.977971, "lon": 35.254849}, {"name": "MUTITHI PRIMARY SCHOOL", "county": "Murang'a", "sub_county": "Murang'a South", "lat": -0.945108182779607, "lon": 37.279632331299}, {"name": "NAGELE", "county": "Lamu", "sub_county": "Lamu West", "lat": -2.389255, "lon": 40.438822}, {"name": "Kithangani Pry", "county": "Tharaka-Nithi", "sub_county": "Igambango'ombe", "lat": 0.374783, "lon": 37.731664}, {"name": "KAPSAIT PRIMARY SCHOOL", "county": "Elgeyo/Marakwet", "sub_county": "Marakwet West", "lat": 1.1365, "lon": 35.3846}, {"name": "ONYALO PRIMARY", "county": "Migori", "sub_county": "Migori", "lat": -1.047501, "lon": 34.479642}, {"name": "Kalapata Primary", "county": "West Pokot", "sub_county": "Pokot North", "lat": 2.351752, "lon": 35.022128}, {"name": "Kavui primary", "county": "Embu", "sub_county": "Mbeere North", "lat": -0.633063, "lon": 37.826225}, {"name": "Ithiki primary", "county": "Murang'a", "sub_county": "Kahuro", "lat": -1.0687, "lon": 36.7245}, {"name": "Mahanga", "county": "Vihiga", "sub_county": "Hamisi", "lat": -1.2841, "lon": 36.8155}, {"name": "Longech Primary School", "county": "Turkana", "sub_county": "Turkana Central", "lat": 3.499547, "lon": 35.877613}, {"name": "Psuka Primary and ECDE", "county": "West Pokot", "sub_county": "Kipkomo", "lat": 1.19162, "lon": 35.16203}, {"name": "Kwamaluvyu primary school", "county": "Makueni", "sub_county": "KATHONZWENI", "lat": -1.991369, "lon": 37.735129}, {"name": "Endna Primary School", "county": "Laikipia", "sub_county": "Laikipia East", "lat": 0.1543, "lon": 36.9088}, {"name": "OKWATA", "county": "Busia", "sub_county": "Teso Central", "lat": 0.59165, "lon": 34.194852}, {"name": "Pundo", "county": "Homa Bay", "sub_county": "Rangwe", "lat": 38.3201111, "lon": 74.10141}, {"name": "KIRKURIA PRIMARY SCHOOL", "county": "Kajiado", "sub_county": "Kajiado West", "lat": -1.690829, "lon": 36.844339}, {"name": "KIANJIRU", "county": "Kirinyaga", "sub_county": "Kirinyaga East", "lat": -0.5444096, "lon": 37.3704401}, {"name": "Vigetse salvation Army primary school", "county": "Vihiga", "sub_county": "Vihiga", "lat": 0.2008, "lon": 34.69251}, {"name": "YANZATI", "county": "Kitui", "sub_county": "Ikutha", "lat": -1.914043, "lon": 38.159118}, {"name": "CHOP", "county": "Elgeyo/Marakwet", "sub_county": "Keiyo South", "lat": 0.320599, "lon": 35.637049}, {"name": "WANGATABUTHI", "county": "Nyandarua", "sub_county": "Nyandarua Central", "lat": -0.192968, "lon": 36.409062}, {"name": "NGESU", "county": "Kitui", "sub_county": "Kitui West", "lat": -1.397989, "lon": 37.934373}, {"name": "KUURA DEB PRIMARY", "county": "Nyamira", "sub_county": "Nyamira South", "lat": -0.6392678, "lon": 34.9361342}, {"name": "ST JOSEPH NDUNDA PRIMARY SCHOOL", "county": "Embu", "sub_county": "Embu North", "lat": -0.472601, "lon": 37.430024}, {"name": "MITO MBILI PRIMARY SCHOOL", "county": "Trans Nzoia", "sub_county": "Trans Nzoia East", "lat": 1.003217, "lon": 35.245904}, {"name": "IKATINI JUNIOR SCHOOL", "county": "Machakos", "sub_county": "Masinga", "lat": 1.067362, "lon": 37.541025}, {"name": "CHERIBO OCHI", "county": "Kericho", "sub_county": "Bureti", "lat": -0.618967, "lon": 35.131111}, {"name": "Utithini", "county": "Machakos", "sub_county": "Masinga", "lat": 0.925829, "lon": 37.673748}, {"name": "WATUHA", "county": "Murang'a", "sub_county": "Kangema", "lat": -0.679493, "lon": 36.991756}, {"name": "Chilchila", "county": "Kericho", "sub_county": "KIPKELION", "lat": -0.198315, "lon": 35.349472}, {"name": "Riabagaka DEB", "county": "Nyamira", "sub_county": "Masaba North", "lat": -0.707363, "lon": 34.870235}, {"name": "ST PETER'S KOIYET PRIMARY", "county": "Bomet", "sub_county": "Chepalungu", "lat": 0.55, "lon": 35.2}, {"name": "KISUNGULA PRIMARY SCHOOL", "county": "Kitui", "sub_county": "Mwingi West/Mingwani", "lat": -1.069014, "lon": 38.093058}, {"name": "Gitine", "county": "Meru", "sub_county": "Igoji", "lat": 37.4232, "lon": 0.94}, {"name": "Kehancha Primary", "county": "Migori", "sub_county": "Kuria West", "lat": -1.178911, "lon": 34.631451}, {"name": "Dunya Primary &JSS", "county": "Siaya", "sub_county": "Bondo", "lat": 0.130873, "lon": 34.299974}, {"name": "ST. LWANGA PRIMARY SCHOOL", "county": "Mombasa", "sub_county": "Changamwe", "lat": -4.022795, "lon": 39.626672}, {"name": "MCK MALAENE", "county": "Meru", "sub_county": "Kiengu", "lat": 0.288288288288288, "lon": 38.0752554008588}, {"name": "Furaha DebSolioRanchprimary", "county": "Laikipia", "sub_county": "Laikipia Central", "lat": 0.19571, "lon": 36.991315}, {"name": "MUSINGU PRIMARY AND JUNIOR SCHOOLS", "county": "Kakamega", "sub_county": "Kakamega East", "lat": 0.1963438, "lon": 34.7552613}, {"name": "PAKASE PRIMARY SCHOOL", "county": "Kajiado", "sub_county": "Elangata Wuas", "lat": -2.056327, "lon": 36.043795}, {"name": "CHEPKONGI PRIMARY SCHOOL", "county": "Uasin Gishu", "sub_county": "Soy", "lat": 0.636918, "lon": 35.303019}, {"name": "SISIONIK PRIMARY AND JUNIOR SCHOOL", "county": "Kericho", "sub_county": "Sigowet/Soin", "lat": 0.41933, "lon": 35.05762}, {"name": "INSPIRATIONS PRIMARY SCHOOL AND JUNIOR SCHOOL", "county": "Mombasa", "sub_county": "Likoni", "lat": -4.11464, "lon": 39.64003}, {"name": "Mbeletu", "county": "Makueni", "sub_county": "Nzaui", "lat": 1.289802, "lon": 36.825629711}, {"name": "KIBIGOR", "county": "Elgeyo/Marakwet", "sub_county": "Keiyo South", "lat": 0.214406, "lon": 35.6674602}, {"name": "KANGUNGI PRIMARY SCHOOL", "county": "Embu", "sub_county": "Mbeere South", "lat": -0.60337, "lon": 37.55351}, {"name": "Usao primary", "county": "Homa Bay", "sub_county": "Suba", "lat": -0.4778451, "lon": 34.3841533}, {"name": "Laluk primary", "county": "Narok", "sub_county": "Narok West", "lat": -0.942443, "lon": 35.464093}, {"name": "Githima primary", "county": "Murang'a", "sub_county": "Kangema", "lat": -0.691422, "lon": 36.94391}, {"name": "Wetaa", "county": "Machakos", "sub_county": "Mwala", "lat": 1.441, "lon": 37.4435}, {"name": "SAMITSI SPECIAL DAY AND BOARDING VOCATIONAL SCHOOL FOR MH", "county": "Kakamega", "sub_county": "Kakamega North", "lat": 0.463388, "lon": 34.761807}, {"name": "AMKENI PRIMARY", "county": "Lamu", "sub_county": "Lamu West", "lat": -2.377662, "lon": 40.56809}, {"name": "MURUNGENE", "county": "Meru", "sub_county": "Igembe North", "lat": 0.335294, "lon": 37.939303}, {"name": "SA Munina", "county": "Machakos", "sub_county": "Yatta", "lat": -1.142815, "lon": 37.558615}, {"name": "MKULIMA JUNIOR SCHOOL", "county": "Nakuru", "sub_county": "Kuresoi North", "lat": 0.302625, "lon": 35.550071}, {"name": "MIGOSI PRIMARY AND JUNIOR SCHOOL", "county": "Siaya", "sub_county": "Gem_Yala", "lat": 0.056378, "lon": 34.487223}, {"name": "SIMUR PRIMARY AND JUNIOR SCHOOL", "county": "Siaya", "sub_county": "Ugenya", "lat": 0.168785, "lon": 34.196777}, {"name": "KIPKENYO PRIMARY SCHOOL", "county": "Uasin Gishu", "sub_county": "Kapseret", "lat": 0.531538, "lon": 35.212316}, {"name": "KIREME PRIMARY SCHOOL", "county": "Kilifi", "sub_county": "Kilifi South", "lat": -3.83316, "lon": 39.747204}, {"name": "MENU FYM PRIMARY", "county": "Bungoma", "sub_county": "Bungoma West", "lat": 0.77829, "lon": 34.535138}, {"name": "MIRONDO  PRIMARY  SCHOOL", "county": "Homa Bay", "sub_county": "Rachuonyo South", "lat": -0.503818, "lon": 34.690693}, {"name": "GATHAITI PRIMARY", "county": "Murang'a", "sub_county": "Murang'a South", "lat": -0.503444, "lon": 37.557659}, {"name": "Kaptuya school", "county": "Baringo", "sub_county": "Tiaty East", "lat": 0.810983, "lon": 36.475825}, {"name": "E.A.P.C. KANGINGA", "county": "Embu", "sub_county": "Embu East", "lat": -0.401367, "lon": 37.631402}, {"name": "Kiriini pr school", "county": "Nyeri", "sub_county": "Nyeri South", "lat": -0.538346, "lon": 36.93514}, {"name": "Gakenge primary school", "county": "Kiambu", "sub_county": "Lari", "lat": 36.757275, "lon": -1.000193}, {"name": "LUBAMBO PRIMARY SCHOOL", "county": "Kakamega", "sub_county": "Kakamega South", "lat": -1.2841, "lon": 36.8155}, {"name": "Kakali primary school", "county": "Turkana", "sub_county": "Turkana South", "lat": 2.3759228, "lon": 35.6510643}, {"name": "Weithaga School", "county": "Murang'a", "sub_county": "Kahuro", "lat": 0.7203, "lon": 36.9816}, {"name": "KONZA PRIMARY SCHOOL", "county": "Kitui", "sub_county": "Lower Yatta", "lat": 1.368783, "lon": 37.90194}, {"name": "Lwala Rahongo Primary and Junior School", "county": "Siaya", "sub_county": "Rarieda", "lat": -0.201222, "lon": 34.338912}, {"name": "Kikwechi asem", "county": "Bungoma", "sub_county": "Kimilili", "lat": 0.841547, "lon": 34.715886}, {"name": "Kimang'eti Primary School", "county": "Kakamega", "sub_county": "Kakamega North", "lat": 0.42511, "lon": 34.888107}, {"name": "LOLUPE PRIMARY AND JUNIOR SCHOOL", "county": "Turkana", "sub_county": "Turkana Central", "lat": 3.106545, "lon": 35.674545}, {"name": "Entaamo", "county": "Kajiado", "sub_county": "Elangata Wuas", "lat": -2.162162, "lon": 36.187926}, {"name": "Urum primary", "county": "Turkana", "sub_county": "Lokiriama", "lat": 2.95190379607075, "lon": 34.8643506899439}, {"name": "Chepkitwal primary school", "county": "Bomet", "sub_county": "Bomet East", "lat": 0.801165, "lon": 35.418343}, {"name": "ST. ANTON ULUTHE PRIMARY AND JS", "county": "Siaya", "sub_county": "Ugunja", "lat": 0.191737, "lon": 34.357116}, {"name": "Makongoni Primary School", "county": "Kitui", "sub_county": "Mutomo", "lat": 1.725, "lon": 38.215}, {"name": "ALLAMANO PRIMARY", "county": "Samburu", "sub_county": "Samburu North", "lat": 1.78333, "lon": 36.783}, {"name": "Kisoko girls primary school", "county": "Busia", "sub_county": "Teso South", "lat": 0.448209, "lon": 34.280571}, {"name": "Gatunyu primary school", "county": "Murang'a", "sub_county": "Gatanga", "lat": 0.954654, "lon": 36.98789}, {"name": "SAWA DEB", "county": "Bungoma", "sub_county": "Tongaren", "lat": 0.831542, "lon": 34.978905}, {"name": "Keronjo", "county": "Bomet", "sub_county": "Sotik", "lat": -0.714424, "lon": 35.167266}, {"name": "MUNJECHE SCHOOL (PRIMARY AND JUNIOR SCHOOL)", "county": "Kakamega", "sub_county": "Khwisero", "lat": -1.274675, "lon": 36.821402}, {"name": "Kirindini primary school", "county": "Tharaka-Nithi", "sub_county": "Maara", "lat": -50.339371, "lon": -84.983112}, {"name": "Ndasiata primary school", "county": "Nakuru", "sub_county": "Kuresoi South", "lat": -0.63913, "lon": 35.658325}, {"name": "SYETHE", "county": "Makueni", "sub_county": "KATHONZWENI", "lat": -2.005812, "lon": 37.767823}, {"name": "KYUMBE COMPREHENSIVE SCHOOL", "county": "Kitui", "sub_county": "Kyuso", "lat": -0.741583, "lon": 37.833486}, {"name": "Pangani comprehensive", "county": "Nakuru", "sub_county": "NAKURU EAST", "lat": -0.305723, "lon": 36.0288}, {"name": "NDURURUMO COMPREHENSIVE", "county": "Kiambu", "sub_county": "Juja", "lat": 1.1580087, "lon": 37.0050934}, {"name": "NANGOLEKURUK PRIMARY SCHOOL", "county": "Turkana", "sub_county": "Turkana Central", "lat": 3.094452, "lon": 36.04492}, {"name": "EBUCHIRA PRIMARY", "county": "Kakamega", "sub_county": "Kakamega Central", "lat": 0.28265, "lon": 34.686425}, {"name": "LAKE AMU SCHOOL", "county": "Lamu", "sub_county": "Lamu West", "lat": -2.44244, "lon": 40.694209}, {"name": "KOLONGEI pry", "county": "Uasin Gishu", "sub_county": "Turbo", "lat": 0.6565613, "lon": 35.2183028}, {"name": "CHEWANI PRIMARY AND JUNIOR SCHOOL", "county": "Tana River", "sub_county": "Tana River", "lat": 1.27, "lon": 40.118}, {"name": "LESIRIKAN PRIMARY", "county": "Samburu", "sub_county": "Samburu North", "lat": -1.2841, "lon": 36.8155}, {"name": "KAPKUTUNG PRIMARY SCHOOL", "county": "Elgeyo/Marakwet", "sub_county": "Marakwet West", "lat": 1.03899, "lon": 35.32056}, {"name": "Hon John Mbadi Ongoro primary and junior school", "county": "Homa Bay", "sub_county": "Suba", "lat": -0.549494, "lon": 34.243375}, {"name": "WAMBUSA PRIMARY JUNIOR SCHOOL", "county": "Siaya", "sub_county": "Gem_Wagai", "lat": -0.059476, "lon": 34.426128}, {"name": "GAKARARA PRIMARY", "county": "Murang'a", "sub_county": "Kandara", "lat": -0.895988, "lon": 36.994551}, {"name": "Shirandalo school", "county": "Kakamega", "sub_county": "Kakamega South", "lat": 0.202798, "lon": 34.670348}, {"name": "ST.THOMAS OCHUDE PRIMARY AND JS SCHOOL", "county": "Busia", "sub_county": "Teso South", "lat": 0.446584, "lon": 34.165275}, {"name": "KIMAI DEB PRIMARY SCHOOL", "county": "Kisii", "sub_county": "Kenyenya", "lat": -0.842566, "lon": 34.729177}, {"name": "ALICEINGHAM PRIMARY SCHOOL", "county": "Baringo", "sub_county": "Marigat", "lat": 0.48375, "lon": 35.99151}, {"name": "YUMBE PRIMARY", "county": "Kitui", "sub_county": "Mwingi Central", "lat": -0.08949517, "lon": 38.20215}, {"name": "KANGATHIA PRIMARY SCHOOL", "county": "Nyandarua", "sub_county": "MIRANGINE", "lat": -0.3397, "lon": 36.29}, {"name": "MULEJI PRIMARY SCHOOL", "county": "Kilifi", "sub_county": "Rabai", "lat": 3.865273, "lon": 39.620187}, {"name": "Munyutha primary", "county": "Murang'a", "sub_county": "Kahuro", "lat": -0.762308, "lon": 37.047938}, {"name": "Korora primary school", "county": "West Pokot", "sub_county": "Pokot Central", "lat": 1.397941, "lon": 35.525392}, {"name": "MURARANDIA PRIMARY", "county": "Murang'a", "sub_county": "Kahuro", "lat": -0.73161, "lon": 36.912543}, {"name": "Kiambogo primary school", "county": "Laikipia", "sub_county": "Nyahururu", "lat": 0.268867, "lon": 36.288115}, {"name": "MBURANJIRU PRIMARY", "county": "Meru", "sub_county": "Igoji", "lat": 0.393574, "lon": 37.986237}, {"name": "ORIANG'I DOK  SCHOOL", "county": "Kisii", "sub_county": "Kisii South", "lat": -0.613602, "lon": 34.674358}, {"name": "Abakore primary and junior school", "county": "Wajir", "sub_county": "Habaswein", "lat": 0.629498, "lon": 39.71118}, {"name": "ENTARGETI", "county": "Narok", "sub_county": "Trans Mara West", "lat": 1.0725, "lon": 34.8516}, {"name": "St.Antony Bwanda Comprehensive School", "county": "Kisumu", "sub_county": "Kisumu East", "lat": -0.132074, "lon": 34.78718}, {"name": "St Michael Loritit primary on", "county": "Turkana", "sub_county": "Turkana West", "lat": 3.46564, "lon": 34.80483}, {"name": "KAFARSA PRIMARY SCHOOL", "county": "Wajir", "sub_county": "khorofharar", "lat": 1.89892, "lon": 40.3031}, {"name": "GATHANGA SCHOOL", "county": "Murang'a", "sub_county": "Murang'a South", "lat": -0.82114, "lon": 37.206061}, {"name": "Enkusero primary", "county": "Narok", "sub_county": "Narok North", "lat": 35.4533, "lon": 0.3318}, {"name": "Maua primary", "county": "Tana River", "sub_county": "Tana Delta", "lat": -2.276003, "lon": 40.110895}, {"name": "MUGANE PRIMARY SCHOOL", "county": "Siaya", "sub_county": "Siaya", "lat": 0.00611, "lon": 34.29581}, {"name": "MATUNGU SDA PRIMARY", "county": "Kakamega", "sub_county": "Matungu", "lat": -1.317165, "lon": 36.889397}, {"name": "KIMANGAO PRIMARY AND JSS", "county": "Kitui", "sub_county": "Kyuso", "lat": -0.52726, "lon": 38.116199}, {"name": "Kolongoni", "county": "Kilifi", "sub_county": "Chonyi", "lat": -3.7439676, "lon": 39.6903511}, {"name": "ORWAKI DEB", "county": "Kisii", "sub_county": "Gucha South", "lat": -0.737372, "lon": 34.648302}, {"name": "ILDEPE PRIMARY", "county": "Baringo", "sub_county": "Marigat", "lat": 0.523203469627, "lon": 36.0378538080786}, {"name": "Kaborom ack primary", "county": "Bungoma", "sub_county": "Mt. Elgon", "lat": 0.86443, "lon": 34.77105}, {"name": "MANYATTA JILLO PRIMARY", "county": "Marsabit", "sub_county": "Marsabit", "lat": 2.357282, "lon": 38.018334}, {"name": "OSASAME PRIMARY", "county": "Busia", "sub_county": "Teso North", "lat": 0.6158, "lon": 34.695}, {"name": "CHIVELI PRIMARY SCHOOL", "county": "Kakamega", "sub_county": "Kakamega North", "lat": 0.41254, "lon": 34.941826}, {"name": "Kaptel Primary & Js", "county": "Elgeyo/Marakwet", "sub_county": "Keiyo North", "lat": 0.681348, "lon": 35.51953}, {"name": "NGILUNI MIXED DAY, BOARDING", "county": "Makueni", "sub_county": "Mbooni East", "lat": 1.66297, "lon": 37.7092}, {"name": "Naikuriu", "county": "Meru", "sub_county": "Matuati", "lat": 0.405471, "lon": 37.959111}, {"name": "Kapsigirio primary school", "county": "Kericho", "sub_county": "Kericho", "lat": -0.289464, "lon": 35.252623}, {"name": "Mukuyu Primary and Jss", "county": "Trans Nzoia", "sub_county": "Trans Nzoia East", "lat": 1.04376002080226, "lon": 35.076431624502}, {"name": "KAISO PRIMARY SCHOOL", "county": "Baringo", "sub_county": "Baringo Central", "lat": 0.3009, "lon": 35.7985}, {"name": "KAPMASO PRIMARY AND JUNIOR SCHOOL", "county": "Kericho", "sub_county": "Belgut", "lat": -0.406355, "lon": 35.200936}, {"name": "MASHAMBA PRIMARY SCHOOL", "county": "Kilifi", "sub_county": "Malindi", "lat": -3.280965, "lon": 40.063449}, {"name": "Mariba DEB Primary", "county": "Nyamira", "sub_county": "Nyamira South", "lat": 0.66, "lon": 34.0}, {"name": "AIC KAMERIS", "county": "West Pokot", "sub_county": "Pokot North", "lat": 2.166, "lon": 35.127}, {"name": "MALUKILORITI PRIMARY SCHOOL", "county": "Taita/Taveta", "sub_county": "Taveta", "lat": -3.369369, "lon": 37.704817}, {"name": "Rianyachuba primary and junior school", "county": "Kisii", "sub_county": "SAMETA", "lat": -0.819697, "lon": 34.812566}, {"name": "12S12", "county": "Meru", "sub_county": "Imenti East", "lat": 0.022687, "lon": 37.670234}, {"name": "NYAERA PRIMARY SCHOOL", "county": "Migori", "sub_county": "Suna West", "lat": 5.0, "lon": 5.0}, {"name": "MISKWONY PRIMARY SCHOOL", "county": "West Pokot", "sub_county": "West Pokot", "lat": 1.57869, "lon": 35.181}, {"name": "CHEKOMBERO SA PRIMARY SCHOOL", "county": "Vihiga", "sub_county": "Sabatia", "lat": -0.124821, "lon": -34.788406}, {"name": "NAMWITSULA PRIMARY AND JUNIOR SCHOOL", "county": "Busia", "sub_county": "Busia", "lat": 0.361005, "lon": 34.209762}, {"name": "Ngorano Primary", "county": "Nyeri", "sub_county": "Mathira West", "lat": 71.695957, "lon": 73.238611}, {"name": "MACHIKINE PRIMARY", "county": "Meru", "sub_county": "Abogeta", "lat": 0.09, "lon": 37.612}, {"name": "GOT OMALO PRIMARY AND JS", "county": "Siaya", "sub_county": "Ugenya", "lat": 0.200521, "lon": 34.235816}, {"name": "KAGERE PRIMARY SCHOOL", "county": "Nyeri", "sub_county": "Nyeri South", "lat": -0.50652, "lon": 36.946547}, {"name": "MT KENYA PRI SCHOOL", "county": "Nyeri", "sub_county": "Nyeri Central", "lat": 0.4876, "lon": 36.9123}, {"name": "NYANJEGA primary and Junior", "county": "Kiambu", "sub_county": "Limuru", "lat": -1.165227, "lon": 36.723915}, {"name": "MBIUNI COMPREHENSIVE SCHOOL", "county": "Makueni", "sub_county": "Kibwezi West", "lat": 1.3244, "lon": 36.7983}, {"name": "SINO SDA PRIMARY", "county": "Homa Bay", "sub_county": "Rachuonyo South", "lat": -0.468999, "lon": 34.736182}, {"name": "AIC NANAM MIXED PRIMARY AND JUNIOR SCHOOL", "county": "Turkana", "sub_county": "LOKICHOGGIO", "lat": 4.210199, "lon": 34.563049}, {"name": "OROCHE DOK PRIMARY", "county": "Kisii", "sub_county": "Kenyenya", "lat": 0.859928, "lon": 34.756378}, {"name": "Naiperere primary", "county": "Laikipia", "sub_county": "Laikipia North", "lat": 0.608306, "lon": 36.829569}, {"name": "Joseph Kangethe Primary/Junior school", "county": "Nairobi City", "sub_county": "Kibra", "lat": -1.303308, "lon": 36.784568}, {"name": "SAWAYAN PRIMARY SCHOOL", "county": "West Pokot", "sub_county": "West Pokot", "lat": 1.5225, "lon": 35.165681}, {"name": "RAGEN AIC", "county": "Kisumu", "sub_county": "Nyakach", "lat": -0.315513, "lon": 34.886882}, {"name": "MALATANI PRIMARY AND JS SCHOOL", "county": "Machakos", "sub_county": "Yatta", "lat": 1.417033, "lon": 37.655625}, {"name": "DEMESI PRIMARY SCHOOL", "county": "Vihiga", "sub_county": "Sabatia", "lat": 0.090138, "lon": 34.690048}, {"name": "KOITALEL", "county": "Kericho", "sub_county": "Belgut", "lat": 0.3627, "lon": 35.1716}, {"name": "Mutamaiyu no", "county": "Nyandarua", "sub_county": "NORTH KINANGOP", "lat": -0.589898, "lon": 36.629633}, {"name": "VIHINDI PRIMARY SCHOOL", "county": "Vihiga", "sub_county": "Sabatia", "lat": 0.140804, "lon": 34.733531}, {"name": "MACHURURIATI SDA PRIMARY", "county": "Nyamira", "sub_county": "Masaba North", "lat": 0.41566, "lon": 34.5554}, {"name": "NAKUKULAS PRIMARY SCHOOL", "county": "Turkana", "sub_county": "Turkana East", "lat": 35.814487, "lon": 2.198882}, {"name": "St. Francis Primary School", "county": "Kisumu", "sub_county": "Kisumu East", "lat": 0.097099, "lon": 34.825118}, {"name": "KYUSO PRIMARY SCHOOL", "county": "Kitui", "sub_county": "Kyuso", "lat": 0.5488, "lon": 38.22014}, {"name": "Sigoti primary school", "county": "Kisumu", "sub_county": "Nyakach", "lat": 0.387, "lon": 34.3875}, {"name": "Barngoror", "county": "Kericho", "sub_county": "Sigowet/Soin", "lat": -0.310898, "lon": 35.053331}, {"name": "Siria comprehensive", "county": "Narok", "sub_county": "Trans Mara South", "lat": -1.23957, "lon": 34.833352}, {"name": "NABAKAN", "county": "Turkana", "sub_county": "Aroo", "lat": 2.288315, "lon": 35.438938}, {"name": "Memba", "county": "Siaya", "sub_county": "Rarieda", "lat": -0.159702, "lon": 34.365385}, {"name": "Madiany  special school for the mentally handicapped and vocational training centre", "county": "Siaya", "sub_county": "Rarieda", "lat": 0.263247810574842, "lon": 34.3233860309193}, {"name": "NYAKEMBENE SDA COMPREHENSIVE SCHOOL", "county": "Kisii", "sub_county": "Gucha South", "lat": -0.830003, "lon": 34.660907}, {"name": "KAPLOMBOI PRIMARY SCHOOL", "county": "Bomet", "sub_county": "Sotik", "lat": -1.292066, "lon": 36.821946}, {"name": "NDEREMA PRIMARY AND JUNIOR", "county": "Kakamega", "sub_county": "Navakholo", "lat": -1.277952, "lon": 36.821402}, {"name": "UHOLA PRIMARY AND JUNIOR SCH", "county": "Siaya", "sub_county": "Ugenya", "lat": 0.38709, "lon": 34.26115}, {"name": "Kedowa Primary School", "county": "Kericho", "sub_county": "Londiani", "lat": -0.210422, "lon": 35.570658}, {"name": "Kuto Primary School", "county": "Narok", "sub_county": "Narok West", "lat": -0.949342, "lon": 35.484287}, {"name": "Sirende SA Webuye primary", "county": "Bungoma", "sub_county": "Bungoma East", "lat": 0.674718, "lon": 34.759842}, {"name": "MWWENA PRIMARY", "county": "Kwale", "sub_county": "Lunga Lunga", "lat": -4.481366, "lon": 39.131374}, {"name": "KAPLOGOS PRIMARY SCHOOL", "county": "Baringo", "sub_county": "Mogotio", "lat": 0.2030803, "lon": 35.90209782}, {"name": "Riandegwa", "county": "Murang'a", "sub_county": "Murang'a East", "lat": 0.9345, "lon": 37.125}, {"name": "GACHARAIGU", "county": "Murang'a", "sub_county": "Kangema", "lat": -0.69804, "lon": 37.018678}, {"name": "LUREKO PRIMARY AND JS", "county": "Kakamega", "sub_county": "Mumias West", "lat": 0.330995, "lon": 34.469535}, {"name": "NAMBALE URBAN PRIMARY", "county": "Busia", "sub_county": "Nambale", "lat": -1.292066, "lon": 36.821946}, {"name": "Chepkoinik primary", "county": "Kericho", "sub_county": "Kericho", "lat": -0.297586, "lon": 35.193526}, {"name": "Kibokoni Primary", "county": "Tana River", "sub_county": "Tana Delta", "lat": -2.313, "lon": 40.2154}, {"name": "MUHAKA PRIMARY SCHOOL", "county": "Kwale", "sub_county": "Msambweni", "lat": -4.339525, "lon": 39.513765}, {"name": "Ilkeek Aare day&Boarding primary", "county": "Narok", "sub_county": "Narok East", "lat": -1.077928, "lon": 36.284048}, {"name": "THOME PRIMARY AND JUNIOR SCHOOL", "county": "Kiambu", "sub_county": "Juja", "lat": -1.147086, "lon": 36.977725}, {"name": "MBUSYANI", "county": "Machakos", "sub_county": "Kangundo", "lat": 26.42327, "lon": 88.615399}, {"name": "Musaalani", "county": "Machakos", "sub_county": "Mwala", "lat": -1.38424512538194, "lon": 37.4612105180652}, {"name": "NTHERONE SCHOOL", "county": "Meru", "sub_county": "Igembe South", "lat": 0.1624803, "lon": 37.981883}, {"name": "KAMOBIRIRI PRIMARY", "county": "Bomet", "sub_county": "Bomet Central", "lat": 1.292066, "lon": 36.821946}, {"name": "Kongasis primary", "county": "Uasin Gishu", "sub_county": "Soy", "lat": 0.90331, "lon": 35.291453}, {"name": "Nzunguni", "county": "Kitui", "sub_county": "Katulani", "lat": -1.678608, "lon": 37.921377}, {"name": "NYAGISAI DOK", "county": "Kisii", "sub_county": "KITUTU CENTRAL", "lat": -0.620891, "lon": 34.756004}, {"name": "MWAMBA PRIMARY SCHOOL", "county": "Trans Nzoia", "sub_county": "Endebess", "lat": 1.183427, "lon": 34.86906}, {"name": "OMBAKA SPECIAL FOR MH", "county": "Kisumu", "sub_county": "Seme", "lat": -0.241432, "lon": 34.88246}, {"name": "Enesampulai", "county": "Narok", "sub_county": "Narok North", "lat": -0.846847, "lon": 36.130072}, {"name": "KIREPWE COMPREHENSIVE SCHOOL", "county": "Kilifi", "sub_county": "Malindi", "lat": -3.351988, "lon": 39.970192}, {"name": "Vuga primary school", "county": "Kilifi", "sub_county": "Kaloleni", "lat": -3.8079915, "lon": 39.64245}, {"name": "Languyato primary school", "county": "Garissa", "sub_county": "Shantaabaq", "lat": 0.412758, "lon": 39.3910229}, {"name": "KAMARICH PRIMARY", "county": "Nandi", "sub_county": "Nandi South", "lat": -1.2841, "lon": 36.8155}, {"name": "OLBUTENET", "county": "Nandi", "sub_county": "Chesumei", "lat": -1.541693, "lon": 40.369466}, {"name": "Mitsajeni", "county": "Kilifi", "sub_county": "Rabai", "lat": 3.989945, "lon": 39.593717}, {"name": "NDURU KADERO PRI SCHOOL", "county": "Kisumu", "sub_county": "Seme", "lat": -0.065523, "lon": 34.466745}, {"name": "TIMBONI PRIMARY", "county": "Kilifi", "sub_county": "Malindi", "lat": -3.170208, "lon": 39.675565}, {"name": "Murigi primary", "county": "Tharaka-Nithi", "sub_county": "Igambango'ombe", "lat": -0.364714, "lon": 37.86873}, {"name": "Moi Teachers Primary", "county": "Baringo", "sub_county": "Baringo Central", "lat": 0.63, "lon": 35.792}, {"name": "Olkeri Primary School", "county": "Kajiado", "sub_county": "Kajiado North", "lat": -1.379578, "lon": 36.697245}, {"name": "BUEMA RC PRIMARY SCHOOL", "county": "Bungoma", "sub_county": "Kimaeti", "lat": 0.592235, "lon": 34.51696}, {"name": "SALAMA PRIMARY AND JUNIOR SCHOOL", "county": "Nairobi City", "sub_county": "Mathare", "lat": -1.260267, "lon": 36.870937}, {"name": "SEGEREK PRIMARY", "county": "Kericho", "sub_county": "Sigowet/Soin", "lat": -0.306306, "lon": 34.991491}, {"name": "Kilamba Primary", "county": "Kitui", "sub_county": "Kisasi", "lat": -1.603182, "lon": 38.046448}, {"name": "SHIPALA PRIMARY", "county": "Vihiga", "sub_county": "Hamisi", "lat": 0.119195, "lon": 34.857269}, {"name": "PCEA Kagema", "county": "Kiambu", "sub_county": "Githunguri", "lat": -1.049922, "lon": 36.863715}, {"name": "CHEMOLO PRIMARY", "county": "West Pokot", "sub_county": "Pokot South", "lat": 1.295496, "lon": 35.329944}, {"name": "ITHIMBARI JUNIOR", "county": "Meru", "sub_county": "Abogeta", "lat": -0.0877677, "lon": 37.5928277}, {"name": "KIHAARO PRIMARY SCHOOL", "county": "Murang'a", "sub_county": "Kandara", "lat": -0.819229, "lon": 37.007991}, {"name": "Turguda primary school", "county": "Wajir", "sub_county": "sabuli", "lat": 0.529, "lon": 40.684}, {"name": "KOGEMBO PRIMARY SCHOOL", "county": "Homa Bay", "sub_county": "Rachuonyo North", "lat": 36.3, "lon": 40.5}, {"name": "OBUYA", "county": "Homa Bay", "sub_county": "Rangwe", "lat": -0.53111, "lon": 34.5907322}, {"name": "Kalulu pry school", "county": "Meru", "sub_county": "Kiengu", "lat": 0.305078, "lon": 37.993288}, {"name": "Kianthang'a", "county": "Tharaka-Nithi", "sub_county": "Igambango'ombe", "lat": -0.342342, "lon": 37.76644}, {"name": "KAMUKANYA PRIMARY", "county": "Embu", "sub_county": "Mbeere North", "lat": -0.453532, "lon": 37.788423}, {"name": "TEBESWET PRIMARY AND JUNIOR SCHOOL", "county": "Bomet", "sub_county": "Chepalungu", "lat": 0.85758, "lon": 35.28374}, {"name": "Atiar Primary", "county": "Baringo", "sub_county": "Baringo North", "lat": 0.80125, "lon": 35.78904}, {"name": "Chemworor primary", "county": "Elgeyo/Marakwet", "sub_county": "Marakwet East", "lat": 1.0725, "lon": 35.57296}, {"name": "NYAHARWA PRIMARY AND JUNIOR SCHOOL", "county": "Siaya", "sub_county": "Ugenya", "lat": 0.6, "lon": 34.57}, {"name": "ILMOTIO PRIMARY SCHOOL", "county": "Kajiado", "sub_county": "Oloililai", "lat": -2.1917, "lon": 36.4817}, {"name": "Mataara special unit", "county": "Kiambu", "sub_county": "Gatundu North", "lat": -0.86919, "lon": 36.807433}, {"name": "Tulwapmoi pripri mmm", "county": "Kericho", "sub_county": "KIPKELION", "lat": 36.0, "lon": 15.0}, {"name": "Mbiriri", "county": "Nyeri", "sub_county": "Kieni East", "lat": 0.32142, "lon": 37.08364}, {"name": "ACHOKOR PKOPUS WILSON", "county": "West Pokot", "sub_county": "Pokot South", "lat": 1.225798, "lon": 35.283468}, {"name": "MWINGI SPECIAL SCHOOL FOR HEARING IMPAIRED", "county": "Kitui", "sub_county": "Mwingi Central", "lat": 0.9275971, "lon": 38.0616916}, {"name": "KILIBWONI PRIMARY", "county": "Nandi", "sub_county": "Nandi Central", "lat": 0.209169, "lon": 35.230698}, {"name": "Embui primary school", "county": "Machakos", "sub_county": "Mwala", "lat": 1.4067, "lon": 37.4959}, {"name": "NDAKARU S.A PRIMARY", "county": "Bungoma", "sub_county": "Bungoma West", "lat": 0.736415, "lon": 34.454634}, {"name": "Olgulului primary school", "county": "Kajiado", "sub_county": "Loitoktok", "lat": -2.5978, "lon": 36.9893}, {"name": "Kodum", "county": "Kisumu", "sub_county": "Nyakach", "lat": -0.275685, "lon": 34.977015}, {"name": "AIC SANIAK ACADEMY", "county": "Nandi", "sub_county": "Chesumei", "lat": 0.271398, "lon": 35.834509}, {"name": "BUGENG'I   M.H   SPECIAL  SCHOOL", "county": "Busia", "sub_county": "Busia", "lat": 0.454767, "lon": 34.125364}, {"name": "MANSUKH PATEL PRIMARY & JUNIOR SCHOOL", "county": "Nakuru", "sub_county": "Rongai", "lat": 0.058183, "lon": 36.129054}, {"name": "Mortena primary school", "county": "Baringo", "sub_county": "Tiaty East", "lat": 0.763511, "lon": 36.405068}, {"name": "KUSUMEK PRIMARY", "county": "Nakuru", "sub_county": "Njoro", "lat": -0.56019, "lon": 35.19}, {"name": "Ocean View", "county": "Lamu", "sub_county": "Lamu West", "lat": -2.445132, "lon": 40.718205}, {"name": "NJIA SPECIAL SCHOOL", "county": "Meru", "sub_county": "Igembe Central", "lat": 0.2693, "lon": 37.8979}, {"name": "Tulya Primary/Jss", "county": "Makueni", "sub_county": "Mbooni East", "lat": -1.556148, "lon": 37.512367}, {"name": "KOGUTA PRIMARY", "county": "Homa Bay", "sub_county": "Rangwe", "lat": 34.3863657, "lon": 0.81700081}, {"name": "Joyland special primary school", "county": "Kisumu", "sub_county": "Kisumu Central", "lat": 85.081558, "lon": -170.090499}, {"name": "MIURINE PRY SCHOOL", "county": "Meru", "sub_county": "Tigania Central", "lat": 0.104669, "lon": 37.919016}, {"name": "SHIKOTI MIXED PRIMARY SCHOOL", "county": "Kakamega", "sub_county": "Kakamega Central", "lat": 0.320279, "lon": 34.730493}, {"name": "KATHOKA PRIMARY SCHOOL", "county": "Kitui", "sub_county": "Mwingi Central", "lat": 0.51134, "lon": 38.1013}, {"name": "MISANI PRIMARY SCHOOL", "county": "Homa Bay", "sub_county": "Ndhiwa", "lat": -1.292066, "lon": 36.821946}, {"name": "ST JOHNS MALAENE PRIMARY", "county": "Meru", "sub_county": "Matuati", "lat": 0.3354, "lon": 37.939167}, {"name": "Kangondi primary/Junior school", "county": "Machakos", "sub_county": "Mwala", "lat": -1.436437, "lon": 37.389738}, {"name": "KAGARII", "county": "Murang'a", "sub_county": "Gatanga", "lat": -0.937468, "lon": 36.962378}, {"name": "MAKUNGA PRIMARY SCHOOL", "county": "Trans Nzoia", "sub_county": "Kwanza", "lat": 1.045385, "lon": 35.040682}, {"name": "PESI COMPREHENSIVE SCHOOL", "county": "Nyandarua", "sub_county": "Aberdares", "lat": -0.120947, "lon": 36.532929}, {"name": "ACK KATHEMBONI PRIMARY", "county": "Makueni", "sub_county": "Mbooni West", "lat": 1.3946, "lon": 37.2922}, {"name": "MCK UCWENI", "county": "Tharaka-Nithi", "sub_county": "Tharaka North", "lat": 0.0200975, "lon": 38.01968339}, {"name": "MARINYIN PRIMARY  SCHOOL", "county": "Bomet", "sub_county": "Konoin", "lat": -0.381997, "lon": 35.25067}, {"name": "St Mary Ithangawe", "county": "Embu", "sub_county": "Embu West", "lat": 0.511967, "lon": 37.501176}, {"name": "Oleleshua", "county": "Kajiado", "sub_county": "Oloililai", "lat": -2.203272, "lon": 36.82263}, {"name": "Kiboino primary school", "county": "Baringo", "sub_county": "Baringo Central", "lat": -0.104745, "lon": 35.683898}, {"name": "MDUNDONYI PRIMARY", "county": "Taita/Taveta", "sub_county": "Wundanyi(Taita)", "lat": 3.4175113, "lon": 38.321348}, {"name": "MANSA PRIMARY", "county": "Wajir", "sub_county": "Tarbaj", "lat": 2.530258, "lon": 40.219901}, {"name": "KETIPLONG PRIMARY SCHOOL", "county": "Uasin Gishu", "sub_county": "Kesses", "lat": 0.310138, "lon": 35.330032}, {"name": "KITHUMANI PRIMARY AND JUNIOR SCHOOL", "county": "Makueni", "sub_county": "Nzaui", "lat": -1.911843, "lon": 37.458655}, {"name": "TETU SUBUKIA PRIMARY SCHOOL", "county": "Nakuru", "sub_county": "Subukia", "lat": -0.040489, "lon": 36.220621}, {"name": "Luuma primary", "county": "Meru", "sub_county": "Tigania East", "lat": 0.236992, "lon": 37.777007}, {"name": "MACHUNGURU PRIMARY SCHOOL", "county": "Laikipia", "sub_county": "Kirima", "lat": 0.400407, "lon": 36.430053}, {"name": "KATHUNGI primary school", "county": "Kitui", "sub_county": "Katulani", "lat": -1.542768, "lon": 37.926323}, {"name": "TATA PRIMARY", "county": "Kwale", "sub_county": "KINANGO", "lat": 39.1187, "lon": -4.0412}, {"name": "ANEKO PRIMARY", "county": "Migori", "sub_county": "Nyatike South", "lat": 0.9, "lon": 34.15}, {"name": "Kimua Primary", "county": "Machakos", "sub_county": "Machakos Town", "lat": -1.4978, "lon": 37.2058}, {"name": "Toretmoi", "county": "Nandi", "sub_county": "Nandi South", "lat": 0.033713, "lon": 35.083107}, {"name": "MASESE primary", "county": "Narok", "sub_county": "Narok West", "lat": -0.684685, "lon": 35.371895}, {"name": "GIAKANJA PRIMARY SCHOOL", "county": "Nyeri", "sub_county": "Nyeri Central", "lat": -0.449137, "lon": 36.945004}, {"name": "Khumuseno pri", "county": "Vihiga", "sub_county": "Luanda", "lat": -0.007333, "lon": 34.56384}, {"name": "Umoja Primary", "county": "Mombasa", "sub_county": "Changamwe", "lat": -4.032739, "lon": 39.621818}, {"name": "Ndira kokoth comprehensive school", "county": "Homa Bay", "sub_county": "Ndhiwa", "lat": 5.3, "lon": 45.3}, {"name": "LOCHOR EDOMEH PRIMARY", "county": "Turkana", "sub_county": "Lokiriama", "lat": 2.4527, "lon": 35.01374}, {"name": "MALIKI CEB PRIMARY SCHOOL", "county": "Bungoma", "sub_county": "Bungoma South", "lat": 0.741448, "lon": 34.453658}, {"name": "SANJWERU", "county": "Homa Bay", "sub_county": "Suba", "lat": -0.706296, "lon": 34.161275}, {"name": "KIAHITI", "county": "Laikipia", "sub_county": "Laikipia West", "lat": 0.09133, "lon": 0.3660645}, {"name": "KARIARA", "county": "Nyandarua", "sub_county": "Kipipiri", "lat": -0.493788, "lon": 36.510295}, {"name": "Kangakamo Primary School", "county": "Kilifi", "sub_county": "Rabai", "lat": -3.901988, "lon": 39.599054}, {"name": "NAKIRERIT PRIMARY SCHOOL", "county": "West Pokot", "sub_county": "Pokot North", "lat": 2.312, "lon": 35.441}, {"name": "CHEPKORGONG PRY", "county": "Bomet", "sub_county": "Chepalungu", "lat": 0.4943572, "lon": 35.26736}, {"name": "Nguluni primary", "county": "Machakos", "sub_county": "Mwala", "lat": -1.500368, "lon": 37.433193}, {"name": "KYAKITOVE PRIMARY SCHOOL", "county": "Machakos", "sub_county": "Kalama", "lat": 1.688013, "lon": 38.4919}, {"name": "KIMUTA PRIMARY SCHOOL", "county": "Bomet", "sub_county": "Konoin", "lat": 0.652473, "lon": 35.322715}, {"name": "Kavisu primary2", "county": "Kitui", "sub_county": "Mwingi East", "lat": -0.850809, "lon": 38.327934}, {"name": "KIRUNGURU PRIMARY SCHOOL", "county": "Murang'a", "sub_county": "Kandara", "lat": -0.893935, "lon": 36.978788}, {"name": "ESHIREMBE PRIMARY SCHOOL", "county": "Kakamega", "sub_county": "Butere", "lat": 0.205892, "lon": 34.477964}, {"name": "Chepkatet hills pri", "county": "Uasin Gishu", "sub_county": "Turbo", "lat": 0.580535, "lon": 34.938132}, {"name": "ST. JOSEPH'S KAPSIRICH PRIMARY", "county": "Bomet", "sub_county": "Chepalungu", "lat": 0.5022, "lon": 35.1548}, {"name": "CHEPTIRET PRIMARY SCHOOL", "county": "Uasin Gishu", "sub_county": "Kesses", "lat": 0.3451785, "lon": 35.3632542}, {"name": "KIMA PRIMARY SCHOOL", "county": "Vihiga", "sub_county": "Luanda", "lat": 0.033151, "lon": 34.633982}, {"name": "Mananja", "county": "Machakos", "sub_county": "Masinga", "lat": -0.847825, "lon": 37.273456}, {"name": "BUKHAKUNGA PRIMARY", "county": "Kakamega", "sub_county": "Kakamega North", "lat": 0.41377, "lon": 34.7341}, {"name": "OBIAYO PRIMARY SCHOOL", "county": "Kisumu", "sub_county": "Muhoroni", "lat": -0.1595882, "lon": 34.9191293}, {"name": "KARUGUTU PRIMARY SCHOOL", "county": "Nyandarua", "sub_county": "Nyandarua Central", "lat": -0.254058, "lon": 36.384027}, {"name": "KWAMBU PRIMARY SCHOOL", "county": "Kakamega", "sub_county": "Matete", "lat": 0.579511, "lon": 34.826161}, {"name": "BISHOP MUGE", "county": "Trans Nzoia", "sub_county": "Kwanza", "lat": 1.1259305, "lon": 35.0752321}, {"name": "OLOONKAI PRIMARY", "county": "Kajiado", "sub_county": "Mashuuru", "lat": 2.182757, "lon": 37.304709}, {"name": "KOKWOPLEKWA PRIMARY SCHOOL", "county": "West Pokot", "sub_county": "Pokot South", "lat": 1.1372902, "lon": 35.355447}, {"name": "St. John's Malivani comprehensive school", "county": "Makueni", "sub_county": "Makueni", "lat": 1.47, "lon": 37.36}, {"name": "UTUNENI PRIMARY SCHOOL", "county": "Makueni", "sub_county": "Mbooni East", "lat": -1.601242, "lon": 37.504778}, {"name": "KOKWET PRIMARY", "county": "Kericho", "sub_county": "KIPKELION", "lat": -0.14491, "lon": 35.360506}, {"name": "CHEBARAA", "county": "Kericho", "sub_county": "Belgut", "lat": -0.466152, "lon": 35.096795}, {"name": "KOSELE PRIMARY", "county": "Homa Bay", "sub_county": "Rachuonyo South", "lat": -0.428471, "lon": 34.688802}, {"name": "SA MAIANI PRIMARY & JUNIOR SCHOOL", "county": "Makueni", "sub_county": "MUKAA", "lat": -1.863081, "lon": 37.295187}, {"name": "KIPKABUS Upper", "county": "Uasin Gishu", "sub_county": "Ainabkoi", "lat": 0.272235, "lon": 35.500956}, {"name": "THUBAI PRIMARY SCHOOL", "county": "Meru", "sub_county": "Igembe South", "lat": 0.2834, "lon": 38.08}, {"name": "NYAIMAO PRIMARY SCHOOL", "county": "Nyamira", "sub_county": "Nyamira North", "lat": -0.458536, "lon": 35.031672}, {"name": "MAGUMA primary", "county": "Tharaka-Nithi", "sub_county": "Maara", "lat": -0.226588, "lon": 37.73497}, {"name": "KIBANJALAL PRIMARY SCHOOL", "county": "Bomet", "sub_county": "Konoin", "lat": -0.669742, "lon": 35.264479}, {"name": "Ngethu primary School", "county": "Kiambu", "sub_county": "Gatundu North", "lat": 0.9299346768349, "lon": 36.9099426953125}, {"name": "MWEMBELEGEZA PRIMARY SCHOOL", "county": "Mombasa", "sub_county": "Kisauni", "lat": 3.979, "lon": 39.728}, {"name": "KAMWENGI SCHOOL", "county": "Kitui", "sub_county": "Kyuso", "lat": -0.364245, "lon": 38.196123}, {"name": "Mlimani primary", "county": "West Pokot", "sub_county": "Kipkomo", "lat": 1.4, "lon": 35.99}, {"name": "NGOORO SCHOOL", "county": "Murang'a", "sub_county": "Kangema", "lat": -0.681067, "lon": 36.992808}, {"name": "Hon.kiema primary", "county": "Kitui", "sub_county": "Nzambani", "lat": -1.41435, "lon": 38.038084}, {"name": "EMUSALA SCHOOL", "county": "Kakamega", "sub_county": "Kakamega Central", "lat": 0.330076, "lon": 34.780045}, {"name": "KAKUNIKE PRIMARY/JS", "county": "Machakos", "sub_county": "Yatta", "lat": -1.2841, "lon": 36.8155}, {"name": "NAIROBI ROAD PRIMARY", "county": "Nakuru", "sub_county": "NAKURU EAST", "lat": 0.90842, "lon": 36.19179}, {"name": "MESO PRIMARY SCHOOL", "county": "Trans Nzoia", "sub_county": "Kiminini", "lat": 0.889818, "lon": 34.978513}, {"name": "MAVUENI PRIMARY/JS", "county": "Kilifi", "sub_county": "Kilifi South", "lat": -1.292066, "lon": 36.821946}, {"name": "RUARE PRIMARY SCHOOL & JS", "county": "Nyeri", "sub_county": "Mathira West", "lat": -0.38509, "lon": 37.083302}, {"name": "MATWIKU COMPREHENSIVE", "county": "Makueni", "sub_county": "KILUNGU", "lat": -1.905458, "lon": 37.432951}, {"name": "Nzikani comprehensive school", "county": "Kitui", "sub_county": "Mwingi East", "lat": -0.792017, "lon": 38.487128}, {"name": "KANAODON PRIMARY SCHOOL", "county": "Turkana", "sub_county": "Aroo", "lat": 2.495919, "lon": 35.408226}, {"name": "NEW HOPE OROLWO PRIMARY & ECDE", "county": "West Pokot", "sub_county": "Kacheliba", "lat": 1.608458, "lon": 34.982797}, {"name": "MWACHEMA PRIMARY", "county": "Kwale", "sub_county": "Matuga", "lat": -4.262062, "lon": 39.570961}, {"name": "NDULIKYE SCHOOL", "county": "Kitui", "sub_county": "Mutito", "lat": -1.58497, "lon": 38.33043}, {"name": "Ringring", "county": "West Pokot", "sub_county": "Pokot South", "lat": 1.169226, "lon": 35.286577}, {"name": "AMANI COMPREHENSIVE SCHOOL", "county": "Tana River", "sub_county": "Bura(Tana North)", "lat": -1.277952, "lon": 36.821402}, {"name": "NZAAIKU", "county": "Kitui", "sub_county": "Mwingi Central", "lat": -0.813347, "lon": 37.981877}, {"name": "Kagondo school", "county": "Nyandarua", "sub_county": "Nyandarua North", "lat": 0.027606, "lon": 36.501614}, {"name": "Kilibasi primary with special unit", "county": "Kwale", "sub_county": "samburu", "lat": -3.971433, "lon": 38.949643}, {"name": "Morop pri", "county": "Nakuru", "sub_county": "Nakuru West", "lat": 0.12196, "lon": 35.95009}, {"name": "MARK NYAMITTA -WANG CHIENG PRIMARY SCHOOL", "county": "Migori", "sub_county": "Uriri", "lat": -0.97903, "lon": 34.46124}, {"name": "OPONDO PRIMARY", "county": "Homa Bay", "sub_county": "Rachuonyo South", "lat": -0.514547, "lon": 34.650101}, {"name": "NABONGO PRIMARY AND JUNIOR SCHOOL", "county": "Kakamega", "sub_county": "Kakamega Central", "lat": 0.279152, "lon": 34.753053}, {"name": "BONDO KOGELO PRIMARY SCHOOL", "county": "Migori", "sub_county": "Awendo", "lat": 0.8677, "lon": 34.5796}, {"name": "HAWEWANJE PRIMARY SCHOOL", "county": "Kilifi", "sub_county": "Malindi", "lat": -3.09524, "lon": 39.56094}, {"name": "Nirth Tetu", "county": "Laikipia", "sub_county": "Laikipia West", "lat": 0.234974, "lon": 36.442354862}, {"name": "KALOPIRIA PRIMARY SCHOOL", "county": "Turkana", "sub_county": "Loima", "lat": 3.351351, "lon": 35.44801}, {"name": "MUTUA RC", "county": "Bungoma", "sub_county": "Bumula", "lat": 0.528782, "lon": 34.444739}, {"name": "Ciagaku", "county": "Tharaka-Nithi", "sub_county": "Muthambi", "lat": -0.334195, "lon": 37.646514}, {"name": "MBUSYANI PRIMARY SCHOOL", "county": "Machakos", "sub_county": "Kalama", "lat": -1.281229, "lon": 36.827955}, {"name": "KAMATONGU SCHOOL", "county": "Nyeri", "sub_county": "Kieni West", "lat": -0.342396, "lon": 36.968264}, {"name": "UVUU PRIMARY SCHOOL", "county": "Makueni", "sub_county": "Mbooni East", "lat": -1.551458, "lon": 37.497563}, {"name": "Waberi primary School", "county": "Wajir", "sub_county": "Wajir East", "lat": 1.7523, "lon": 40.0635}, {"name": "KITHUNTHI SA PRIMARY", "county": "Machakos", "sub_county": "Kangundo", "lat": -1.375702, "lon": 37.357253}, {"name": "KAHUHO COMPREHENSIVE SCHOOL", "county": "Nyandarua", "sub_county": "South Kinangop", "lat": 0.73954, "lon": 36.5463}, {"name": "KITOLOSWONI PRIMARY SCHOOL", "county": "Narok", "sub_county": "Narok West", "lat": -0.858091, "lon": 35.545436}, {"name": "MABUBI COMPREHENSIVE SCHOOL", "county": "Migori", "sub_county": "Migori", "lat": 34.40969, "lon": -1.0383721}, {"name": "Dandu primary", "county": "Mandera", "sub_county": "Dandu", "lat": 3.421518, "lon": 39.877461}, {"name": "Kibaoni comprehensive school", "county": "Kilifi", "sub_county": "Bahari(Kilifi)", "lat": -3.62168, "lon": 39.854536}, {"name": "KAPKANYAR School", "county": "Elgeyo/Marakwet", "sub_county": "Marakwet West", "lat": 1.777185, "lon": 35.338224}, {"name": "NANDI ROCK", "county": "Nandi", "sub_county": "Nandi South", "lat": -0.013267, "lon": 34.879992}, {"name": "KALYET  PRIMARY", "county": "Uasin Gishu", "sub_county": "Moiben", "lat": 0.76804, "lon": 35.298767}, {"name": "Nyamosense Primary School", "county": "Migori", "sub_county": "Mabera", "lat": 5.331644, "lon": 25.3125}, {"name": "Kapchelach", "county": "Kericho", "sub_county": "Bureti", "lat": -0.468678, "lon": 35.117478}, {"name": "KAENGOLERENG PRIMARY SCHOOL", "county": "Turkana", "sub_county": "Turkana South", "lat": 2.717259, "lon": 35.632697}, {"name": "KOSHOK RC", "county": "Bungoma", "sub_county": "Mt. Elgon", "lat": 0.841398, "lon": 34.658995}, {"name": "MURIRICHUA PRY/JUNIOR SCH", "county": "Nyandarua", "sub_county": "Nyandarua North", "lat": 0.0404, "lon": 36.570411}, {"name": "LOLKUTA SOUTH PRIMARY", "county": "Wajir", "sub_county": "Hadado", "lat": 1.257958, "lon": 39.372332}, {"name": "Anin primary", "county": "Elgeyo/Marakwet", "sub_county": "Keiyo North", "lat": -1.237508, "lon": 37.016691}, {"name": "RABEL PRIMARY AND JUNIOR SCHOOL", "county": "Siaya", "sub_county": "Rarieda", "lat": -0.269916, "lon": 34.364342}, {"name": "SHABAH PRIMARY AND JUNIOR SCHOOL", "county": "Garissa", "sub_county": "Sankuri", "lat": -0.330665, "lon": 39.586224}, {"name": "DAIDAI PRIMARY", "county": "Garissa", "sub_county": "Dadaab", "lat": 0.052385, "lon": 40.304555}, {"name": "MAIUNI PRIMARY", "county": "Machakos", "sub_county": "Yatta", "lat": -1.2315251, "lon": 37.55658}, {"name": "KOLAL PRIMARY SCHOOL", "county": "Homa Bay", "sub_county": "Rachuonyo East", "lat": -1.281229, "lon": 36.821402}, {"name": "MATIERIO DEB PRIMARY SCHOOL", "county": "Nyamira", "sub_county": "Nyamira South", "lat": -0.499355, "lon": 34.882935}, {"name": "Bongwe primary", "county": "Kwale", "sub_county": "Matuga", "lat": -4.283463, "lon": 39.558725}, {"name": "KALOLENI PRIMARY SCHOOL", "county": "Mombasa", "sub_county": "Mvita(Mombasa)", "lat": 47.98208, "lon": 36.151618}, {"name": "WERU PRIMARY", "county": "Nyandarua", "sub_county": "Nyandarua West", "lat": -0.12910305, "lon": 36.3814116}, {"name": "WAKABHAREY", "county": "Garissa", "sub_county": "HULUGHO", "lat": -0.439317, "lon": 39.646852}, {"name": "King'uutheni", "county": "Makueni", "sub_county": "Makueni", "lat": -1.817383, "lon": 37.67931}, {"name": "Maranyona Primary", "county": "Siaya", "sub_county": "Siaya", "lat": 0.825591, "lon": 34.350663}, {"name": "Kuyogh Comprehensive school", "county": "West Pokot", "sub_county": "Kipkomo", "lat": 1.484359, "lon": 35.33626}, {"name": "Chewara Primary School", "county": "Baringo", "sub_county": "Tiaty West", "lat": 0.98608, "lon": 35.971622}, {"name": "KAPCHEBWAI PRIMARY", "county": "Kericho", "sub_county": "Sigowet/Soin", "lat": 0.18322, "lon": 35.20652}, {"name": "SIKRIJERUSALEM", "county": "Homa Bay", "sub_county": "Mbita", "lat": 0.4988, "lon": 34.430973}, {"name": "Ntoombo Primary School", "county": "Meru", "sub_county": "Tigania West", "lat": 37.77466, "lon": 0.12545}, {"name": "MASOKANI", "county": "Makueni", "sub_county": "MUKAA", "lat": -1.918587, "lon": 37.413962}, {"name": "Muutiokiama", "county": "Meru", "sub_county": "Abogeta", "lat": -0.121546111, "lon": 37.72828139}, {"name": "TILOA COMPREHENSIVE SCHOOL SCHOOL", "county": "Nakuru", "sub_county": "Kuresoi North", "lat": 0.3732, "lon": 35.5542}, {"name": "KASUNDU PRIMARY SCHOOL", "county": "Kitui", "sub_county": "Mutomo", "lat": -1.797907, "lon": 38.207815}, {"name": "MIDODONI CENTRAL", "county": "Kilifi", "sub_county": "Magarini", "lat": -3.13, "lon": 39.13}, {"name": "Kapyemit primary School", "county": "Baringo", "sub_county": "Baringo Central", "lat": 0.533015, "lon": 35.663785}, {"name": "KATOTHYA PRIMARY SCHOOL", "county": "Machakos", "sub_county": "Masinga", "lat": -9.33843, "lon": 37.601028}, {"name": "Kipngosos primary school", "county": "Bomet", "sub_county": "Sotik", "lat": -0.737283, "lon": 35.085217}, {"name": "Nthima", "county": "Tharaka-Nithi", "sub_county": "Igambango'ombe", "lat": 21.2, "lon": 37.41}, {"name": "Kurkat Pry&JS", "county": "West Pokot", "sub_county": "Kipkomo", "lat": 1.322644, "lon": 35.371139}, {"name": "Tamarukwa Primary School", "county": "West Pokot", "sub_county": "West Pokot", "lat": 1.76685, "lon": 35.155305}, {"name": "WOCHI PRIMARY SCHOOL", "county": "Kericho", "sub_county": "Bureti", "lat": 0.56066, "lon": 35.09493}, {"name": "Chamachichi primary school", "county": "Migori", "sub_county": "Nyatike South", "lat": -1.052901, "lon": 34.222532}, {"name": "Chongolo", "county": "Kwale", "sub_county": "Matuga", "lat": 67.476157, "lon": -25.37495}, {"name": "Chebiemit", "county": "Elgeyo/Marakwet", "sub_county": "Marakwet West", "lat": 0.855999, "lon": 35.503052}, {"name": "Aorachuodho primary", "county": "Homa Bay", "sub_county": "Suba West", "lat": -0.765145, "lon": 34.236666}, {"name": "Singwaya", "county": "Tana River", "sub_county": "Bura(Tana North)", "lat": -1.131, "lon": 39.86}, {"name": "Nyangweta SDA Primary School", "county": "Kisii", "sub_county": "Etago", "lat": -0.896996, "lon": 34.676296}, {"name": "Mbusyani pr school", "county": "Machakos", "sub_county": "Masinga", "lat": -0.921736, "lon": 37.325295}, {"name": "KANGIMA PRIMARY SCHOOL", "county": "Kitui", "sub_county": "Mutomo", "lat": -1.732408, "lon": 38.203137}, {"name": "KONE PRIMARY", "county": "Narok", "sub_county": "Narok South", "lat": -1.1702, "lon": 35.5136}, {"name": "Angugo primary school I", "county": "Migori", "sub_county": "Nyatike", "lat": -0.899765, "lon": 34.195937}, {"name": "KAGAA PRIMARY", "county": "Murang'a", "sub_county": "Murang'a South", "lat": 0.39, "lon": 37.12}, {"name": "Sugutek Lelach", "county": "Kericho", "sub_county": "Kericho", "lat": -0.296642, "lon": 35.249245}, {"name": "Ithanga school", "county": "Tharaka-Nithi", "sub_county": "Tharaka South", "lat": 24.947655, "lon": 66.991966}, {"name": "ENDARASHA PRIMARY AND JUNIOR SCHOOL", "county": "Nyeri", "sub_county": "Kieni West", "lat": -0.309965, "lon": 36.793617}, {"name": "Ndii Primary School", "county": "Taita/Taveta", "sub_county": "Voi", "lat": -3.375043, "lon": 38.427665}, {"name": "Kaisugu primary and junior school", "county": "Kericho", "sub_county": "Kericho", "lat": -0.319927, "lon": 35.371825}, {"name": "GACUIRO PRIMARY", "county": "Nyeri", "sub_county": "Mathira West", "lat": -0.426879, "lon": 37.088095}, {"name": "DEB RUNKURU PRIMARY SCHOOL", "county": "Meru", "sub_county": "Buuri East", "lat": 0.094602, "lon": 37.591468}, {"name": "Masaani school", "county": "Kitui", "sub_county": "Mutito", "lat": -0.990892, "lon": 37.932302}, {"name": "KIBIRICHIA BOARDING", "county": "Meru", "sub_county": "Buuri East", "lat": 0.050971, "lon": 37.645336}, {"name": "SIMOTWET SCHOOL", "county": "Nandi", "sub_county": "Chesumei", "lat": 0.321131, "lon": 35.104601}, {"name": "ANDARAK PRIMARY  AND JUNIOR", "county": "Mandera", "sub_county": "Banisa", "lat": 4.213388, "lon": 40.66822}, {"name": "DR. CHARLES GIMOSE  IKONZA ADC PRIMARY", "county": "Vihiga", "sub_county": "Hamisi", "lat": 0.01218, "lon": 34.47006}, {"name": "Kapkorio school", "county": "Nandi", "sub_county": "Nandi South", "lat": 0.052015, "lon": 34.92709}, {"name": "PUNDAMILIA", "county": "Murang'a", "sub_county": "Murang'a South", "lat": -0.3452, "lon": 37.3567}, {"name": "KOMUOK PRIMARY AND JUNIOR SCHOOL", "county": "Siaya", "sub_county": "Gem_Wagai", "lat": 0.035398, "lon": 34.421823}, {"name": "Siret primary", "county": "Nandi", "sub_county": "Nandi East", "lat": 0.069787, "lon": 35.236641}, {"name": "KIRINGA PRIMARY SCHOOL", "county": "Meru", "sub_county": "Abogeta", "lat": -0.140783333, "lon": 37.72398056}, {"name": "RIKIAU SCHOOL", "county": "Meru", "sub_county": "Igoji", "lat": 0.276442, "lon": 37.887866334}, {"name": "IGOMA PAG PRIMARY", "county": "Kisii", "sub_county": "Gucha", "lat": 0.8404, "lon": 34.8212}, {"name": "Ngunyumu School", "county": "Nairobi City", "sub_county": "Kasarani", "lat": -1.24797, "lon": 36.891871}, {"name": "Mosombor primary School", "county": "Nandi", "sub_county": "Chesumei", "lat": 0.62044, "lon": 35.092747}, {"name": "GANDINI SOUTH PRIMARY", "county": "Kwale", "sub_county": "KINANGO", "lat": -1.274675, "lon": 36.821402}, {"name": "ENDIBA DEB PRIMARY", "county": "Nyamira", "sub_county": "Nyamira North", "lat": 0.56185, "lon": 34.9609}, {"name": "LUBANGA AC PRIMARY", "county": "Kakamega", "sub_county": "Matungu", "lat": 0.412225, "lon": 34.3677517}, {"name": "KABOSENWO PRIMARY", "county": "Kericho", "sub_county": "Sigowet/Soin", "lat": 34.959208, "lon": -116.419389}, {"name": "CCM MWERONDU", "county": "Meru", "sub_county": "Tigania West", "lat": 0.231018, "lon": 37.688253}, {"name": "OLOKIRDINGAI PRI AND JUNIOR SCHOOL", "county": "Kajiado", "sub_county": "Kajiado West", "lat": -1.1393, "lon": 36.45735}, {"name": "KIRURIRI PRIMARY SCHOOL", "county": "Embu", "sub_county": "Mbeere South", "lat": 0.749763, "lon": 37.817232}, {"name": "Kiheo", "county": "Nyandarua", "sub_county": "GATHANJI", "lat": 36.29128, "lon": 0.041758}, {"name": "SAKANA PRIMARY SCHOOL", "county": "Bomet", "sub_county": "Chepalungu", "lat": 36.0, "lon": -0.1}, {"name": "KANGUNDU PRIMARY CHOOL", "county": "Machakos", "sub_county": "Masinga", "lat": -6.187576, "lon": 87.6547}, {"name": "Sasenyi primary", "county": "Taita/Taveta", "sub_county": "Voi", "lat": -3.67945, "lon": 38.709997}, {"name": "MBUANI PRIMARY SCHOOL", "county": "Machakos", "sub_county": "Kalama", "lat": -1.669248, "lon": 37.392401}, {"name": "NAMIRAMA PRIMARY SCHOOL", "county": "Kakamega", "sub_county": "Navakholo", "lat": 0.023, "lon": 0.856}, {"name": "Nyangoso sda", "county": "Kisii", "sub_county": "Nyamanche", "lat": 0.924836, "lon": 34.836976}, {"name": "Shanyinya", "county": "Kakamega", "sub_county": "Kakamega East", "lat": 0.18018, "lon": 34.756929}, {"name": "DIBUORO PRIMARY SCHOOL", "county": "Siaya", "sub_county": "Siaya", "lat": -1.281229, "lon": 36.821402}, {"name": "ST ANDREWS OVARIRE PRIMARY SCHOOL", "county": "Embu", "sub_county": "Mbeere North", "lat": 0.496273, "lon": 37.728586}, {"name": "KIPTEBES PRIMARY SCHOOL", "county": "Nandi", "sub_county": "Tinderet", "lat": 0.005049, "lon": 35.305764}, {"name": "SHIRAKALU COMPREHENSIVE", "county": "Kakamega", "sub_county": "Butere", "lat": -1.292066, "lon": 36.821946}, {"name": "NGUNGUUNI SCHOOL", "county": "Makueni", "sub_county": "KATHONZWENI", "lat": -2.109573, "lon": 37.87182}, {"name": "PARUA  PRIMARY  SCHOOL", "county": "West Pokot", "sub_county": "Kipkomo", "lat": 1.3, "lon": 35.3}, {"name": "GETERERE DOK PRIMARY", "county": "Kisii", "sub_county": "Kenyenya", "lat": -0.688558, "lon": 34.81203}, {"name": "CHEMOGO PRIMARY", "county": "Bomet", "sub_county": "Konoin", "lat": -0.505934, "lon": 35.213479}, {"name": "POROKO SPECIAL SCHOOL FOR MH AND AUTISM UNIT", "county": "Narok", "sub_county": "Trans Mara West", "lat": -1.271398, "lon": 36.834509}, {"name": "GOD ABUORO", "county": "Kisumu", "sub_county": "Nyando", "lat": -0.107042, "lon": 35.154752}, {"name": "Maron", "county": "Elgeyo/Marakwet", "sub_county": "Marakwet East", "lat": 1.215679, "lon": 35.583738}, {"name": "GOGO PRIMARY AND JUNIOR SCHOOL", "county": "Siaya", "sub_county": "Gem_Yala", "lat": 0.09436, "lon": 34.42351}, {"name": "KIMURUK PRIMARY SCHOOL", "county": "Uasin Gishu", "sub_county": "Ainabkoi", "lat": 0.109112, "lon": 35.543324}, {"name": "KYUSYANI PR", "county": "Machakos", "sub_county": "Yatta", "lat": -1.329327, "lon": 37.60045}, {"name": "Makaani primary school", "county": "Kitui", "sub_county": "Kitui Central", "lat": -1.253237, "lon": 38.070275}, {"name": "RURAMA PRIMARY", "county": "Meru", "sub_county": "Igoji", "lat": 1.28486801180866, "lon": 36.8003664848161}, {"name": "KARUMARU PRIMARY SCHOOL", "county": "Meru", "sub_county": "Igembe South", "lat": 0.18945944, "lon": 37.95742667}, {"name": "Kingingo primary", "county": "Kitui", "sub_county": "Kyuso", "lat": -0.681053, "lon": 38.139563}, {"name": "CHESIGOT PRIMARY", "county": "Kericho", "sub_county": "KIPKELION", "lat": 0.1199912, "lon": 35.279974}, {"name": "Ibutuka", "county": "Embu", "sub_county": "Mbeere North", "lat": -0.514533, "lon": 37.706935}, {"name": "Muthaiga primary and junior school", "county": "Laikipia", "sub_county": "Laikipia East", "lat": 0.003303, "lon": 37.083406}, {"name": "MOI TOWNSHIP", "county": "Kakamega", "sub_county": "Likuyani", "lat": 0.87348, "lon": 35.12049}, {"name": "KIMELOK GIRLS BOARDING  SCHOOL", "county": "Kajiado", "sub_county": "Kajiado West", "lat": -1.29161666416328, "lon": 36.809290224337}, {"name": "NENKASHE EDUCATION CENTRE", "county": "Kajiado", "sub_county": "Kajiado Central", "lat": 1.856, "lon": 36.56}, {"name": "HONGWE PRIMARY", "county": "Lamu", "sub_county": "Lamu West", "lat": -2.392064, "lon": 40.697856}, {"name": "Shikomoli primary school", "county": "Vihiga", "sub_county": "Hamisi", "lat": 0.05441, "lon": 34.78389}, {"name": "LELU PRY", "county": "Kericho", "sub_county": "KIPKELION", "lat": -0.151118, "lon": 35.437482}, {"name": "Kiamboa", "county": "Embu", "sub_county": "Embu East", "lat": 0.423062, "lon": 37.628141}, {"name": "IGAAL PRIMARY SCHOOL", "county": "Garissa", "sub_county": "Liboi", "lat": 0.158679, "lon": 40.784667}, {"name": "NKOE PRIMARY SCHOOL", "county": "Meru", "sub_county": "Igembe Central", "lat": 0.3228, "lon": 37.91676}, {"name": "MALOMONYE PRIMARY", "county": "Trans Nzoia", "sub_county": "Kwanza", "lat": 35.034745, "lon": 1.2224}, {"name": "Mukameni", "county": "Machakos", "sub_county": "Mwala", "lat": -1.039512, "lon": 37.593241}, {"name": "Kiamani primary and js", "county": "Kitui", "sub_county": "Kitui West", "lat": -1.165705, "lon": 37.970209}, {"name": "KAPTENDON PRIMARY", "county": "Nandi", "sub_county": "Nandi Central", "lat": -1.281229, "lon": 36.821402}, {"name": "NGOVU PRIMARY SCHOOL", "county": "Kitui", "sub_county": "Lower Yatta", "lat": 1.59762, "lon": 37.7923416}, {"name": "KIPRANYE PRIMARY", "county": "Kericho", "sub_county": "Sigowet/Soin", "lat": 0.476, "lon": 35.0763}, {"name": "Iten School For The Deaf", "county": "Elgeyo/Marakwet", "sub_county": "Keiyo North", "lat": 0.667229, "lon": 35.506724}, {"name": "KAVETE PRIMARY SCHOOL", "county": "Kitui", "sub_county": "Mutomo", "lat": -1.831168, "lon": 38.388546}, {"name": "AHITI NDOMBA PRIMARY", "county": "Kirinyaga", "sub_county": "Mwea East", "lat": 0.5822345, "lon": 37.3434842}, {"name": "KAPSAMUT", "county": "Nandi", "sub_county": "Nandi South", "lat": 0.083077, "lon": 35.215619}, {"name": "Kaburgei primary school", "county": "Baringo", "sub_county": "Mogotio", "lat": 0.17963, "lon": 35.769176}, {"name": "Ndori primary $ Junior School", "county": "Homa Bay", "sub_county": "Homa Bay", "lat": -0.63107, "lon": 34.5291}, {"name": "KAPUNE PRIMARY SCHOOL", "county": "Narok", "sub_county": "Trans Mara West", "lat": 0.9225, "lon": 34.98426}, {"name": "LOKOYO PRIMARY AND JUNIOR SCHOOL", "county": "Turkana", "sub_county": "Loima", "lat": 3.22288, "lon": 35.483156}, {"name": "KENEROI", "county": "Baringo", "sub_county": "Marigat", "lat": -1.292066, "lon": 36.821946}, {"name": "MCK MITARATU PRIMARY AND JUNIOR SCHOOL", "county": "Meru", "sub_county": "Meru Central", "lat": 0.02078, "lon": 37.61951}, {"name": "MOSHORO PRIMARY SCHOOL", "county": "Narok", "sub_county": "Narok East", "lat": -1.013042, "lon": 36.188775}, {"name": "Gakuo", "county": "Kirinyaga", "sub_county": "Mwea East", "lat": 34.0, "lon": 44.0}, {"name": "BADI TWALIB PRIMARY", "county": "Mombasa", "sub_county": "Jomvu", "lat": -3.995005, "lon": 39.616222}, {"name": "Magutu Primary school", "county": "Kwale", "sub_county": "Msambweni", "lat": 4.297051, "lon": 39.556232}, {"name": "Qobo Primary school", "county": "Mandera", "sub_county": "Kotulo", "lat": 2.649029, "lon": 40.885695}, {"name": "MANGAI PRIMARY SCHOOL", "county": "Lamu", "sub_county": "Lamu East", "lat": -1.748148, "lon": 41.176763}, {"name": "Kiptungururwo s. a primary school", "county": "Bungoma", "sub_county": "Kipsiro", "lat": 0.782893, "lon": 34.575046}, {"name": "KIMELOK PRIMARY", "county": "Narok", "sub_county": "Narok South", "lat": -1.2799, "lon": 36.4098}, {"name": "KANYAKINE BOYS BOARDING", "county": "Meru", "sub_county": "Abogeta", "lat": -0.119991214779583, "lon": 37.6699948310852}, {"name": "Ngelani", "county": "Kitui", "sub_county": "Mutomo", "lat": 1.711595, "lon": 38.46292}, {"name": "KIRWA SDA PRIMARY AND JSS", "county": "Kisii", "sub_county": "KISII CENTRAL", "lat": 0.52, "lon": 35.3}, {"name": "KEROKA  DOK  PRIMARY", "county": "Kisii", "sub_county": "Masaba South", "lat": -0.736579, "lon": 34.984297}, {"name": "Muhoni primary and junior school", "county": "Kilifi", "sub_county": "Ganze", "lat": -3.481217, "lon": 39.630071}, {"name": "ROBINSON PRIMARY", "county": "Trans Nzoia", "sub_county": "Endebess", "lat": 1.2, "lon": 34.9}, {"name": "ST. VERONICAH ODIRIA PRI.", "county": "Busia", "sub_county": "Teso Central", "lat": 0.61827, "lon": 34.205392}, {"name": "MCK LINGURI", "county": "Meru", "sub_county": "Tigania East", "lat": 0.249358, "lon": 37.844001}, {"name": "CCM GACEERO SCHOOL", "county": "Meru", "sub_county": "Imenti  South", "lat": -0.108904, "lon": 37.784873}, {"name": "KITINGIA SA PRIMARY", "county": "Bungoma", "sub_county": "Kimaeti", "lat": 0.600235, "lon": 34.377782}, {"name": "IKUYWA PRIMARY SCHOOL", "county": "Kakamega", "sub_county": "Kakamega East", "lat": 0.2081, "lon": 34.9355}, {"name": "Leldet", "county": "Nakuru", "sub_county": "Rongai", "lat": -0.203946, "lon": 35.842822}, {"name": "BOGISERO GETEMBE  JSS", "county": "Kisii", "sub_county": "Gucha South", "lat": 0.797858, "lon": 34.662886}, {"name": "KAPKANGANI PRIMARY SCHOOL", "county": "Nandi", "sub_county": "Nandi Central", "lat": 0.183, "lon": 34.97}, {"name": "SIAKAGO PRIMARY", "county": "Embu", "sub_county": "Mbeere North", "lat": -1.277952, "lon": 36.818125}, {"name": "Kigarine", "county": "Meru", "sub_county": "Imenti  South", "lat": -0.063872, "lon": 37.59218}, {"name": "ORENGE PRIMARY SCHOOL", "county": "Kisumu", "sub_county": "Muhoroni", "lat": -0.09273, "lon": 34.92471}, {"name": "UGAMBE PRIMARY AND JUNIOR SCHOOL", "county": "Siaya", "sub_county": "Ugenya", "lat": 0.279969, "lon": 34.223684}, {"name": "Musokani primary", "county": "Kitui", "sub_county": "Mwingi East", "lat": 1.068007, "lon": -38.167198}, {"name": "KIPTENDEN PRIMARY SCHOOL", "county": "Narok", "sub_county": "Narok West", "lat": -0.8297904, "lon": 35.527903}, {"name": "KILIMU PRIMARY SCHOOL", "county": "Kitui", "sub_county": "Matinyani", "lat": -1.269952, "lon": 37.923985}, {"name": "CHEPKOCHUN PRIMARY", "county": "Kericho", "sub_county": "Sigowet/Soin", "lat": 0.405038, "lon": 35.10212}, {"name": "DEB Njeru school", "county": "Embu", "sub_county": "Mwea", "lat": -0.850158, "lon": 37.598239}, {"name": "BOYANI PRIMARY", "county": "Kwale", "sub_county": "Matuga", "lat": -4.296182, "lon": 39.484582}, {"name": "CHARITY", "county": "Nyeri", "sub_county": "Kieni West", "lat": -0.299810833, "lon": 36.76651361}, {"name": "LELDAET PRIMARY", "county": "Bomet", "sub_county": "Bomet Central", "lat": -0.751646, "lon": 35.253476}, {"name": "ELIM HOPE primary", "county": "Turkana", "sub_county": "Aroo", "lat": 2.240802, "lon": 35.449142}, {"name": "Galona primary school", "county": "Vihiga", "sub_county": "Hamisi", "lat": 0.049245, "lon": 34.749045}, {"name": "Kibingei fym", "county": "Bungoma", "sub_county": "Kimilili", "lat": 0.74371, "lon": 34.67718}, {"name": "SAMITUI PRIMARY see", "county": "Nandi", "sub_county": "Nandi South", "lat": 0.00383, "lon": 34.97897}, {"name": "Busidibu Primary School", "county": "Busia", "sub_county": "Busia", "lat": 0.432104, "lon": 34.226853}, {"name": "KAPTIENI COMPREHENSIVE SCHOOL", "county": "Vihiga", "sub_county": "Hamisi", "lat": 0.081433, "lon": 34.842335}, {"name": "Kagwanja", "county": "Murang'a", "sub_county": "Mathioya", "lat": 0.62051, "lon": 37.016436}, {"name": "HABAKIK COMPREHENSIVE SCHOOL", "county": "Tana River", "sub_county": "Bangale", "lat": -33.872347, "lon": -63.082294}, {"name": "JN MWONGE", "county": "Embu", "sub_county": "Mbeere South", "lat": -0.59423, "lon": -37.51814}, {"name": "ENKORIKA PRIMARY AND JUNIOR", "county": "Kajiado", "sub_county": "Kajiado Central", "lat": -1.96541, "lon": 36.921248}, {"name": "KIUNYU PRIMARY SCHOOL", "county": "Murang'a", "sub_county": "Gatanga", "lat": -0.951479, "lon": 37.017785}, {"name": "Elnur primary school", "county": "Wajir", "sub_county": "Eldas", "lat": 1.8333567, "lon": 39.99505}, {"name": "NASERIAN PRIMARY SCHOOL", "county": "Laikipia", "sub_county": "Laikipia West", "lat": 0.12886, "lon": 36.70408}, {"name": "GURA", "county": "Nyeri", "sub_county": "Nyeri South", "lat": -0.516498, "lon": 36.993508}, {"name": "SYUNGUNI PRIMARY", "county": "Kitui", "sub_county": "Mutomo", "lat": -1.876307, "lon": 38.136354}, {"name": "MATHAKWAINI", "county": "Nyeri", "sub_county": "Tetu", "lat": -0.496957, "lon": 36.923088}, {"name": "JABAGRE PRIMARY SCHOOL", "county": "Homa Bay", "sub_county": "Ndhiwa", "lat": -1.268122, "lon": 36.827955}, {"name": "Kituneni", "county": "Embu", "sub_county": "Mwea", "lat": 0.836837, "lon": 37.464693}, {"name": "THAGEINI", "county": "Nyeri", "sub_county": "Tetu", "lat": -0.510227, "lon": 37.046961}, {"name": "KIPSASURON PRIMARY SCHOOL", "county": "Nandi", "sub_county": "Chesumei", "lat": 0.1159, "lon": 35.1255}, {"name": "NYAMWARE SCHOOL", "county": "Kisumu", "sub_county": "Kadibo", "lat": 52.296722, "lon": 55.801726}, {"name": "SHAKA PRIMARY SCHOOL", "county": "Kilifi", "sub_county": "Kilifi South", "lat": -3.559822, "lon": 39.519261}, {"name": "Gesiaga primary school", "county": "Nyamira", "sub_county": "Nyamira South", "lat": 0.6789114, "lon": 34.68979}, {"name": "KITONGI PRIMARY SCHOOL", "county": "Machakos", "sub_county": "Kangundo", "lat": -1.336, "lon": 37.3248}, {"name": "Kilimo primary school", "county": "Nakuru", "sub_county": "Njoro", "lat": 0.371842, "lon": 35.934287}, {"name": "Kaunguni", "county": "Makueni", "sub_county": "MAKINDU", "lat": 2.398882, "lon": 37.85872}, {"name": "RIABAI PRIMARY", "county": "Kiambu", "sub_county": "Kiambu", "lat": 1.16514, "lon": 36.8}, {"name": "Chepseon Primary school", "county": "Nakuru", "sub_county": "Rongai", "lat": -0.204799, "lon": 35.840605}, {"name": "Kamuchiru", "county": "Tharaka-Nithi", "sub_county": "Meru North", "lat": 37.67006, "lon": 0.41119}, {"name": "LAIKIPIA AIR BASE PRIMARY SCHOOL", "county": "Laikipia", "sub_county": "Laikipia Central", "lat": 0.031682, "lon": 37.040777}, {"name": "Rebeko primary", "county": "Baringo", "sub_county": "Baringo North", "lat": 0.74395, "lon": 35.7899}, {"name": "Bilisa primary and junior school", "county": "Tana River", "sub_county": "Tana Delta", "lat": 2.23432, "lon": 40.115751}, {"name": "KIAMBERE SCHOOL COMPLEX", "county": "Embu", "sub_county": "Mbeere North", "lat": 0.3372, "lon": 37.534698}, {"name": "IKOBE DOK PRIMARY", "county": "Nyamira", "sub_county": "Nyamira South", "lat": -0.59245, "lon": 34.921889}, {"name": "ACIIT PRIMARY SCHOOL", "county": "Busia", "sub_county": "Teso South", "lat": 0.539613, "lon": 34.178746}, {"name": "KAKEMER PRIMARY", "county": "Busia", "sub_county": "Teso North", "lat": 0.751113, "lon": 34.374723}, {"name": "STAR OF HOPE", "county": "Nairobi City", "sub_county": "Makadara", "lat": -1.310902, "lon": 36.87497}, {"name": "SEKEROT PRIMARY SCHOOL", "county": "Narok", "sub_county": "Narok East", "lat": -1.035979, "lon": 36.389244}, {"name": "KASOGOLETOM PRIMARY", "county": "Turkana", "sub_county": "Loima", "lat": 3.494392, "lon": 35.447114}, {"name": "Kapsang JSS", "county": "Uasin Gishu", "sub_county": "Soy", "lat": 0.791474, "lon": 35.289287}, {"name": "Gakuyu primary", "county": "Murang'a", "sub_county": "Murang'a East", "lat": -0.650402, "lon": 37.078514}, {"name": "ARANGAI", "county": "Uasin Gishu", "sub_county": "Ainabkoi", "lat": 0.125812, "lon": 35.511385}, {"name": "LOROGON PRIMARY SCHOOL", "county": "Turkana", "sub_county": "Aroo", "lat": 1.936, "lon": 35.359}, {"name": "NGUGUINI", "county": "Kirinyaga", "sub_county": "Kirinyaga Central", "lat": -0.509045, "lon": 37.188418}, {"name": "Nyabera sda primary", "county": "Kisii", "sub_county": "Etago", "lat": -1.001018, "lon": 35.0004}, {"name": "KAMENES PRIMARY", "county": "Bomet", "sub_county": "Sotik", "lat": 0.843337, "lon": 35.130894}, {"name": "KIBOS PRISON PRIMARY", "county": "Kisumu", "sub_county": "Muhoroni", "lat": -0.06395845, "lon": 34.816032}, {"name": "NDUBUSAT", "county": "Kericho", "sub_county": "KIPKELION", "lat": -1.292066, "lon": 36.821946}, {"name": "MUANGENI PRIMARY", "county": "Makueni", "sub_county": "Nzaui", "lat": -2.01615, "lon": 37.606155}, {"name": "Ndithini primary", "county": "Machakos", "sub_county": "Masinga", "lat": 0.937157, "lon": 37.320592}, {"name": "Mumu SDA PRIMARY school", "county": "Kisii", "sub_county": "Etago", "lat": -0.952862, "lon": 34.661348}, {"name": "LUNGAI FYM PRI", "county": "Bungoma", "sub_county": "Bungoma North", "lat": 0.838663, "lon": 34.776102}, {"name": "SNR. CHIEF OLENKOIDILLAH COMPREHENSIVE SCHOOL", "county": "Narok", "sub_county": "Trans Mara South", "lat": 1.274309, "lon": -28.576601}, {"name": "KARIRU", "county": "Kirinyaga", "sub_county": "Kirinyaga East", "lat": -0.432432, "lon": 37.352415}, {"name": "NGENENET PRIMARY SCHOOL", "county": "Bomet", "sub_county": "Chepalungu", "lat": -0.924353, "lon": 35.241181}, {"name": "OLORUPA", "county": "Narok", "sub_county": "Narok North", "lat": 0.842024, "lon": 35.888261}, {"name": "Emboliei Primary", "county": "Kajiado", "sub_county": "Kajiado West", "lat": -1.655085, "lon": 36.487543}, {"name": "LWANDA K PRIMARY SCHOOL", "county": "Kakamega", "sub_county": "Kakamega North", "lat": 0.414046, "lon": 34.896554}, {"name": "IIANI PRIMARY/ JUNIOUR SCHOOL", "county": "Machakos", "sub_county": "Yatta", "lat": -1.42151, "lon": 37.66311}, {"name": "Shiru primary", "county": "Vihiga", "sub_county": "Vihiga", "lat": 0.158265, "lon": 34.899139}, {"name": "KAKO PR", "county": "Makueni", "sub_county": "KATHONZWENI", "lat": 1.6975, "lon": 37.64217}, {"name": "GETURI DEB PRIMARY AND JUNIOR SCHOOL", "county": "Nyamira", "sub_county": "Nyamira North", "lat": -0.47562, "lon": 35.029928}, {"name": "MGAMANI PRIMARY", "county": "Kwale", "sub_county": "samburu", "lat": -3.7932319, "lon": 39.2662818}, {"name": "ATHINAI  SCHOOL", "county": "Nakuru", "sub_county": "Rongai", "lat": 0.016905, "lon": 35.934586}, {"name": "NG'OU PRIAMRY SCHOOL", "county": "Migori", "sub_county": "Rongo", "lat": -0.88643, "lon": 34.58762}, {"name": "Kibeu SA Primary and Junior School", "county": "Bungoma", "sub_county": "Webuye West", "lat": 0.663056, "lon": 34.47204}, {"name": "Masoka primary school", "county": "Kitui", "sub_county": "Katulani", "lat": -1.557483, "lon": 37.892987}, {"name": "AMASA PRIMARY SCHOOL \ud83c\udf92", "county": "Mandera", "sub_county": "Mandera West", "lat": 40.0, "lon": 3.0}, {"name": "Mirogi primary", "county": "Homa Bay", "sub_county": "Ndhiwa", "lat": -0.699725, "lon": 34.385058}, {"name": "MIRANGI", "county": "Kiambu", "sub_county": "Lari", "lat": 0.582786, "lon": 36.937778}, {"name": "ALUOR JUNIOR SCHOOL", "county": "Homa Bay", "sub_county": "Ndhiwa", "lat": 0.670834, "lon": 34.546383}, {"name": "LAKEVIEW PRIMARY", "county": "Nakuru", "sub_county": "Naivasha", "lat": -5.68174, "lon": -7.41725}, {"name": "YAWO KAMOLO PRIMARY", "county": "Homa Bay", "sub_county": "Rachuonyo North", "lat": -0.42869, "lon": 34.626405}, {"name": "CHERWA", "county": "Kisumu", "sub_county": "Nyakach", "lat": -1.271398, "lon": 36.834509}, {"name": "KISABEI SCHOOL", "county": "Nandi", "sub_county": "Chesumei", "lat": 0.31356, "lon": 35.06209}, {"name": "Malinda S.A", "county": "Bungoma", "sub_county": "Bungoma West", "lat": 0.76726, "lon": 34.50332}, {"name": "MARY IMMACULATE PRIMARY SCHOOL - KIAMUMBI", "county": "Kiambu", "sub_county": "Kiambu", "lat": 1.1809, "lon": 36.88874}, {"name": "Waluka primary", "county": "Vihiga", "sub_county": "Luanda", "lat": -0.057483, "lon": 34.42404}, {"name": "CHABI PRIMARY SCHOOL", "county": "Mandera", "sub_county": "Kiliwehiri", "lat": 3.960123, "lon": 40.244458}, {"name": "KENETI PRIMARY SCHOOL", "county": "Narok", "sub_county": "Narok West", "lat": -0.792793, "lon": 35.408795}, {"name": "Ithunzi comprehensive school", "county": "Kitui", "sub_county": "Mumoni", "lat": -0.660812, "lon": 37.936458}, {"name": "NDAUNI PRIMARY", "county": "Kitui", "sub_county": "Mwingi Central", "lat": 0.862, "lon": 38.206}, {"name": "MUSUNGUTI PRIMARY SCHOOL", "county": "Vihiga", "sub_county": "Vihiga", "lat": 0.004141, "lon": 34.634445}, {"name": "Kamali", "county": "Kitui", "sub_county": "TSEIKURU", "lat": 0.214607, "lon": 38.257426}, {"name": "AIC KABOBO PRIMARY", "county": "Uasin Gishu", "sub_county": "Soy", "lat": 0.7794367, "lon": 35.253624}, {"name": "IEMBENI PRIMARY SCHOOL", "county": "Murang'a", "sub_county": "ITHANGA", "lat": -1.083201, "lon": 37.359034}, {"name": "BAR OPUK PRIMARY AND JUNIOR SCHOOL", "county": "Siaya", "sub_county": "Bondo", "lat": -0.08288, "lon": 34.30417}, {"name": "OPAARE R.C PRIMARY", "county": "Busia", "sub_county": "Teso North", "lat": 53.839564, "lon": 23.99674}, {"name": "MURINGATO PRIMARY SCHOOL", "county": "Nyeri", "sub_county": "Nyeri Central", "lat": -0.399873, "lon": 36.958285}, {"name": "NGOROMOSIO  PRIMARY", "county": "Nandi", "sub_county": "Nandi North", "lat": 0.3318, "lon": 34.9419}, {"name": "MATEPES COMPREHENSIVE SCHOOL", "county": "Kajiado", "sub_county": "Loitoktok", "lat": 3.096618, "lon": 37.731907}, {"name": "KALULU COMPREHENSIVE SCHOOL", "county": "Makueni", "sub_county": "Kambu", "lat": 2.55695, "lon": 38.04526}, {"name": "GWASHENI PRIMARY SCHOOL", "county": "Kwale", "sub_county": "samburu", "lat": -3.855856, "lon": 39.476748}, {"name": "MARIMANI   PRIMARY  SCHOOL", "county": "Mombasa", "sub_county": "Kisauni", "lat": -3.995763, "lon": 39.611702}, {"name": "BUDAYWA JUNIOR SCHOOL", "county": "Vihiga", "sub_county": "Sabatia", "lat": 0.144185, "lon": 34.780552}, {"name": "ORINIE PRIMARY SCHOOL", "county": "Kajiado", "sub_county": "Kajiado Central", "lat": -1.840187, "lon": 36.792434}, {"name": "RIOMEGO PAG PRIMARY", "county": "Nyamira", "sub_county": "Nyamira North", "lat": -0.48191, "lon": 35.0043}, {"name": "DADACHDERA PRIMARY SCHOOL", "county": "Wajir", "sub_county": "Buna", "lat": 2.90808, "lon": 42.75}, {"name": "AWARSITU PRIMARY", "county": "Isiolo", "sub_county": "Merti", "lat": 0.954955, "lon": 38.545894}, {"name": "MANGA PRIMARY", "county": "Homa Bay", "sub_county": "Suba West", "lat": -0.414408, "lon": 34.787485}, {"name": "Misanga fym", "county": "Bungoma", "sub_county": "Kimaeti", "lat": 0.561523, "lon": 34.55977}, {"name": "KARUCHO", "county": "Kirinyaga", "sub_county": "Kirinyaga East", "lat": -0.5088954, "lon": 37.379552}, {"name": "Kanyateng Primary school", "county": "Kisumu", "sub_county": "Nyakach", "lat": -0.282701, "lon": 34.946952}, {"name": "METAMAYWA DEB", "county": "Nyamira", "sub_county": "Masaba North", "lat": -0.771628, "lon": 34.969782}, {"name": "KITHIANIO PRIMARYg", "county": "Machakos", "sub_county": "Mwala", "lat": -1.50116, "lon": 37.517974}, {"name": "Cheleget primary school", "county": "Bomet", "sub_county": "Chepalungu", "lat": -0.97837, "lon": 35.269695}, {"name": "Kigathi primary", "county": "Nyeri", "sub_county": "Mukurweini", "lat": -0.587501, "lon": 37.082852}, {"name": "Ebubole primary", "county": "Kakamega", "sub_county": "Mumias East", "lat": 0.301530161, "lon": 34.51822229}, {"name": "KALISA SCHOOL", "county": "Embu", "sub_county": "Mwea", "lat": 0.80056, "lon": 37.46418}, {"name": "RONALD NGALA", "county": "Nairobi City", "sub_county": "Njiru", "lat": -1.242745, "lon": 36.909981}, {"name": "KHELELA ACK", "county": "Bungoma", "sub_county": "Bumula", "lat": 0.538651, "lon": 34.406249}, {"name": "KANYENGYA PRIMARY SCHOOL", "county": "Kitui", "sub_county": "Thagico", "lat": -0.349875, "lon": 38.050124}, {"name": "NAMAMBA", "county": "Kakamega", "sub_county": "Matungu", "lat": 34.555781, "lon": 0.444582}, {"name": "Karati", "county": "Nyandarua", "sub_county": "South Kinangop", "lat": -0.734719, "lon": 36.567035}, {"name": "EMALI PRI", "county": "Makueni", "sub_county": "Nzaui", "lat": -2.086324796, "lon": 37.476457}, {"name": "KIMOTONY PRIMARY SCHOOL", "county": "Baringo", "sub_county": "Baringo Central", "lat": 0.37055, "lon": 35.7411}, {"name": "WANYOI PRIMARY", "county": "West Pokot", "sub_county": "West Pokot", "lat": 1.646317, "lon": 35.138355}, {"name": "Itet Primary school", "county": "Uasin Gishu", "sub_county": "Moiben", "lat": 0.700948, "lon": 35.308532}, {"name": "KIPAO PRIMARY & JUNIOR SCHOOL", "county": "Tana River", "sub_county": "Tana Delta", "lat": -2.4337084, "lon": 40.211684}, {"name": "Aedomoru primary school", "county": "Busia", "sub_county": "Teso South", "lat": 0.672426, "lon": 34.464705}, {"name": "VWIVWINI PRI/JUNIOR SCHOOL", "county": "Kwale", "sub_county": "Lunga Lunga", "lat": -4.471787, "lon": 39.34823}, {"name": "ARABAL PRIMARY SCHOOL", "county": "Baringo", "sub_county": "Marigat", "lat": 0.456747, "lon": 36.2024037}, {"name": "ST MARTIN'S PRIMARY", "county": "Kilifi", "sub_county": "Chonyi", "lat": 3.783224, "lon": 39.72324}, {"name": "Kiogutwa  day", "county": "Nyamira", "sub_county": "Manga", "lat": -0.648912, "lon": 34.867072}, {"name": "KARAKUTA PRIMARY AND JUNIOR", "county": "Kiambu", "sub_county": "Juja", "lat": 9.477294, "lon": 31.255973}, {"name": "BORU HARO PRIMARY SCHOOL", "county": "Marsabit", "sub_county": "Marsabit", "lat": 2.33, "lon": 37.99}, {"name": "MICHORE PRIMARY SCHOOL", "county": "Nyandarua", "sub_county": "WANJOHI", "lat": -0.36036, "lon": 36.541263}, {"name": "A.I.C  EMMANUEL", "county": "Bomet", "sub_county": "Konoin", "lat": 0.562497, "lon": 35.37946}, {"name": "NTURIRI PRIMARY SCHOOL", "county": "Tharaka-Nithi", "sub_county": "Maara", "lat": 36.0, "lon": 32.0}, {"name": "Homalime Primary school", "county": "Kisumu", "sub_county": "Muhoroni", "lat": -0.21915, "lon": 35.29366}, {"name": "RATANDI DEB PRIMARY", "county": "Nyamira", "sub_county": "Nyamira South", "lat": -0.578505, "lon": 34.948588}, {"name": "Embo-Rutto Primary", "county": "Baringo", "sub_county": "Baringo North", "lat": 0.6535, "lon": 35.818652}, {"name": "AIC Lokichoggio Girls primary school", "county": "Turkana", "sub_county": "LOKICHOGGIO", "lat": 4.206004, "lon": 34.353157}, {"name": "Ole nabaala schools", "county": "Narok", "sub_county": "Narok Central", "lat": -1.078652, "lon": 35.492003}, {"name": "MUGAAINI", "county": "Murang'a", "sub_county": "Kandara", "lat": -0.914287, "lon": 37.012339}, {"name": "WERUGHA", "county": "Taita/Taveta", "sub_county": "Voi", "lat": -3.384508, "lon": 38.341198}, {"name": "KARUGU PRIMARY SCHOOL", "county": "Murang'a", "sub_county": "Murang'a South", "lat": -1.277274, "lon": 36.820362}, {"name": "RIOMANGA DEB PRIMARY SCHOOL", "county": "Nyamira", "sub_county": "Masaba North", "lat": -0.754487, "lon": 34.951814}, {"name": "WATWANG'A COG", "county": "Bungoma", "sub_county": "Bungoma South", "lat": 0.485636, "lon": 34.635996}, {"name": "Rwanyange primary school", "county": "Meru", "sub_county": "Imenti East", "lat": 0.075303, "lon": 37.730163}, {"name": "CCM GATANGA", "county": "Murang'a", "sub_county": "Gatanga", "lat": -0.936506, "lon": 36.959349}, {"name": "MORIJO PRIMARY SCHOOL", "county": "Samburu", "sub_county": "Samburu Central", "lat": 1.3300416249868, "lon": 36.6299629211426}, {"name": "KOKARE PRIMARY", "county": "Busia", "sub_county": "Teso North", "lat": 0.624971, "lon": 34.31971}, {"name": "RYENYA PRIMARY", "county": "Meru", "sub_county": "Igembe South", "lat": 0.174939, "lon": 37.94}, {"name": "SIBANGA PRIMARY", "county": "Trans Nzoia", "sub_county": "Trans Nzoia East", "lat": 1.03, "lon": 35.11}, {"name": "Gatenderene  primary/junior", "county": "Meru", "sub_county": "Meru Central", "lat": 0.0271, "lon": 37.7455}, {"name": "RUGONGO PRIMARY SCHOOL", "county": "Laikipia", "sub_county": "Nyahururu", "lat": 0.456, "lon": -36.129}, {"name": "YATIA PRIMARY", "county": "Baringo", "sub_county": "Baringo North", "lat": 0.78857, "lon": 35.92208}, {"name": "NYALUNYA PRIMARY AND JUNIOR SCHOOL", "county": "Kisumu", "sub_county": "Kisumu East", "lat": -0.11605, "lon": 34.802098}, {"name": "EBUCHINGA PRIMARY", "county": "Kakamega", "sub_county": "Kakamega South", "lat": 0.281507, "lon": 34.751196}, {"name": "Baraka primary", "county": "Kilifi", "sub_county": "Kaloleni", "lat": -3.87167, "lon": 39.502449}, {"name": "Holo primary and junior school", "county": "Kisumu", "sub_county": "Nyakach", "lat": -0.356503, "lon": 35.00355}, {"name": "Gathima primary School", "county": "Kiambu", "sub_county": "Lari", "lat": -1.026592, "lon": 36.749989}, {"name": "ONG'ORA PRIMARY SCHOOL", "county": "Migori", "sub_county": "Awendo", "lat": -0.956884, "lon": 34.587488}, {"name": "Inkati primary school", "county": "Kajiado", "sub_county": "Oloililai", "lat": -2.54959, "lon": 36.7953}, {"name": "Kaburwo", "county": "Baringo", "sub_county": "Marigat", "lat": 35.7975, "lon": 0.0203}, {"name": "BOMANI PRIMARY", "county": "Kwale", "sub_county": "Matuga", "lat": -4.250138, "lon": 39.149028}, {"name": "Nyamunda Primary", "county": "Migori", "sub_county": "Ntimaru", "lat": -1.013983, "lon": 34.361777}, {"name": "Tachasis Primary", "county": "Uasin Gishu", "sub_county": "Moiben", "lat": 0.810811, "lon": 35.390931}, {"name": "NDIKO SPECIAL SCHOOL", "county": "Kiambu", "sub_county": "Gatundu North", "lat": -1.216, "lon": 36.92946}, {"name": "NTEMWENE PRIMARY SCHOOL", "county": "Meru", "sub_county": "Imenti  South", "lat": -0.065536, "lon": 37.666816}, {"name": "AIC KIPKETIENGWET PRIMARY", "county": "Uasin Gishu", "sub_county": "Soy", "lat": 0.825544, "lon": 35.18728}, {"name": "OPANDE PRIMARY", "county": "Kisumu", "sub_county": "Seme", "lat": -0.109305, "lon": 34.423431}, {"name": "KISEUNI PRIMARY", "county": "Machakos", "sub_county": "Masinga", "lat": -0.94224, "lon": 37.741927}, {"name": "Kideket primary school", "county": "Narok", "sub_county": "Narok South", "lat": 1.27154985, "lon": 36.01254365}, {"name": "Eldume Primary School", "county": "Baringo", "sub_county": "Marigat", "lat": 0.45646, "lon": 36.01923}, {"name": "MALINDI CENTRAL PRIMARY", "county": "Kilifi", "sub_county": "Malindi", "lat": -3.218, "lon": 40.1169}, {"name": "MIKAUNI PRIMARY SCHOOL", "county": "Makueni", "sub_county": "KATHONZWENI", "lat": -2.03403, "lon": 37.88648}, {"name": "TUIGOIN", "county": "Trans Nzoia", "sub_county": "Trans Nzoia East", "lat": 0.939888, "lon": 35.279147}, {"name": "Ogaka primary and Junior School", "county": "Homa Bay", "sub_county": "Suba", "lat": -0.76581, "lon": 34.09276}, {"name": "TWIGA PRIMARY", "county": "Kiambu", "sub_county": "Limuru", "lat": -1.121942, "lon": 36.989868}, {"name": "Esoit Naibor", "county": "Narok", "sub_county": "Trans Mara South", "lat": -1.088948, "lon": 35.010768}, {"name": "Witima", "county": "Nyeri", "sub_county": "Nyeri South", "lat": 36.978725, "lon": -0.551849}, {"name": "Oloitip School", "county": "Narok", "sub_county": "Narok East", "lat": -1.088013, "lon": 36.20844}, {"name": "KALUMU PRIMARY SCHOOL", "county": "Kitui", "sub_county": "TSEIKURU", "lat": -0.289802, "lon": 36.825629711}, {"name": "MASUNGU PRIMARY SCHOOL", "county": "Kitui", "sub_county": "Mutito", "lat": 51.299, "lon": 38.2459}, {"name": "AIC NDULELE PRIMARY", "county": "Nandi", "sub_county": "Chesumei", "lat": 35.304395, "lon": 0.22565}, {"name": "JOGBARU PRIMARY SCHOOL", "county": "Wajir", "sub_county": "Wajir East", "lat": -2.56, "lon": 38.32}, {"name": "ST DENIS LIBOILINA SPECIAL SCHOOL FOR THE PHYSICAL CHALLENGED", "county": "Bungoma", "sub_county": "Kimaeti", "lat": 0.546562, "lon": 35.777646}, {"name": "KWALE SCHOOL FOR THE MENTALLY HANDICAPPED", "county": "Kwale", "sub_county": "Shimba Hills", "lat": -4.174381, "lon": 39.457465}, {"name": "St josephs sachangwan", "county": "Nandi", "sub_county": "Nandi North", "lat": 0.327011, "lon": 35.078966}, {"name": "Nyakegogi DOK Primary and Junior School", "county": "Kisii", "sub_county": "SAMETA", "lat": -0.751184, "lon": 34.775463}, {"name": "Manoa primary", "county": "Taita/Taveta", "sub_county": "Mwatate", "lat": -3.506427, "lon": 38.375009}, {"name": "Kianyambo Primary School", "county": "Kirinyaga", "sub_county": "Kirinyaga East", "lat": -0.498176, "lon": 37.402276}, {"name": "ILKERIN ENAMENEIP PRIMARY", "county": "Narok", "sub_county": "Narok Central", "lat": 1.138621, "lon": 35.951037}, {"name": "Mudungu primary school", "county": "Vihiga", "sub_county": "Sabatia", "lat": 0.087105, "lon": 34.801522}, {"name": "SANGALO TOWNSHIP SCHOOL", "county": "Nandi", "sub_county": "Nandi North", "lat": 0.400911, "lon": 35.081999}, {"name": "Embakasi Garrison Primary", "county": "Nairobi City", "sub_county": "EMBAKASI", "lat": 1.307014, "lon": 36.921294}, {"name": "ANDINGO OPANGA", "county": "Kisumu", "sub_county": "Nyakach", "lat": -0.36588, "lon": 34.848839}, {"name": "TUMUTUMU PRIMARY SCHOOL", "county": "Machakos", "sub_county": "Masinga", "lat": 0.802, "lon": 37.29}, {"name": "Rwethe Primary School", "county": "Embu", "sub_county": "Mbeere South", "lat": 59.108308, "lon": 15.044413}, {"name": "MPRRISHI PRIMARY", "county": "Kajiado", "sub_county": "Kajiado West", "lat": -1.457882, "lon": 36.426928}, {"name": "Raruowa Kadera comprehensive school", "county": "Migori", "sub_county": "Awendo", "lat": -0.842202, "lon": 34.578622}, {"name": "Kariguini primary school", "county": "Kiambu", "sub_county": "Limuru", "lat": -0.97165, "lon": 36.749121}, {"name": "WANGAI PRIMARY AND JUNIOR SCHOOL", "county": "Murang'a", "sub_county": "Kandara", "lat": -0.966656, "lon": 37.116314}, {"name": "Mikuyu Primary", "county": "Machakos", "sub_county": "Machakos Town", "lat": -1.566059, "lon": 37.229294}, {"name": "KAPCHILA MIXED PRIMARY SCHOOL", "county": "West Pokot", "sub_county": "West Pokot", "lat": 1.26, "lon": 35.19}, {"name": "WANG'ANGA PRIMARY SCHOOL", "county": "Kisumu", "sub_county": "Nyando", "lat": -0.1616, "lon": 35.0732}, {"name": "KITABAYE PRIMARY SCHOOL", "county": "Migori", "sub_county": "Suna West", "lat": -1.281229, "lon": 36.821402}, {"name": "Ol Taffeta Primary 35R2", "county": "Laikipia", "sub_county": "Laikipia Central", "lat": -0.070943, "lon": 36.814948}, {"name": "ROO D.O.K PRIMARY AND JUNIOR", "county": "Homa Bay", "sub_county": "Suba", "lat": -0.554166, "lon": 34.128331}, {"name": "Marula Primary", "county": "Nakuru", "sub_county": "Naivasha", "lat": -0.642765, "lon": 36.385018}, {"name": "MASIKALINI PRIMARY SCHOOL", "county": "Kitui", "sub_county": "Mutito", "lat": -1.53996, "lon": 38.334638}, {"name": "Chemoson", "county": "Kericho", "sub_county": "Belgut", "lat": -0.425103, "lon": 35.195613}, {"name": "KTOMWONY COMPREHENSIVE", "county": "West Pokot", "sub_county": "Pokot South", "lat": 1.229978, "lon": 35.372822}, {"name": "KINU PRIMARY SCHOOL", "county": "Vihiga", "sub_county": "Hamisi", "lat": 0.047486615511952, "lon": 34.7893761419026}, {"name": "LOMONYANG PRIMARY", "county": "Turkana", "sub_county": "Aroo", "lat": 2.337761, "lon": 35.483355}, {"name": "Shoe 4;Africa Moses Kiptanui primary school", "county": "Elgeyo/Marakwet", "sub_county": "Marakwet West", "lat": 0.857832, "lon": 35.225665}, {"name": "MATULANI PRIMARY SCHOOL", "county": "Kitui", "sub_county": "Lower Yatta", "lat": -1.571672, "lon": 37.816899}, {"name": "Ereri Baptist Primary School", "county": "Laikipia", "sub_county": "Laikipia East", "lat": 36.91817, "lon": 0.12272}, {"name": "DEB KAIRUN", "county": "Meru", "sub_county": "Buuri East", "lat": 0.17958, "lon": 37.613}, {"name": "Kiumoni Primary", "county": "Kitui", "sub_county": "Kitui West", "lat": -1.151013, "lon": 37.786534}, {"name": "MUTUATINE PRIMARY SCHOOL", "county": "Meru", "sub_county": "Kiengu", "lat": 0.21078, "lon": 37.948113}, {"name": "St. Francis Omwari Dok primary school 5", "county": "Kisii", "sub_county": "Kisii South", "lat": -0.659173, "lon": 34.651257}, {"name": "KIMBO SCHOOL", "county": "Nyandarua", "sub_county": "Kipipiri", "lat": -0.5203867, "lon": 36.4073189}, {"name": "BIDII PRIMARY SCHOOL", "county": "Nairobi City", "sub_county": "Makadara", "lat": 1.285, "lon": 36.8814}, {"name": "Baharini Primary School", "county": "Nakuru", "sub_county": "NAKURU EAST", "lat": 0.301, "lon": 36.0812}, {"name": "Olpopongi", "county": "Narok", "sub_county": "Trans Mara East", "lat": -1.01227, "lon": 35.182515}, {"name": "SILOBA SHINE RC PRIMARY", "county": "Bungoma", "sub_county": "Kimaeti", "lat": 0.611864, "lon": 34.364757}, {"name": "Kapchesimbol primary school", "county": "Uasin Gishu", "sub_county": "Kesses", "lat": 0.742755, "lon": 35.472494},